~Version ---------------------------------------------------
VERS.   2.0 : CWLS log ASCII Standard -VERSION 2.0
WRAP.    NO : One Line per Depth Step
DLM . SPACE : Delimiter between data columns - one or more spaces
~Well ------------------------------------------------------
STRT.m                                                                  650 : First Depth
STOP.m                                                                 1981 : Last Depth
STEP.m                                                                  0.2 : Depth Increment
NULL.                                                               -999.25 : NULL Value
COMP.                                                   Spur Petroleum Ltd. : Well Operator
WELL. SPL 1-13 HZ 104 MartenH 4-17-74-25 Photo Log Leg #4 (2nd Leg f/North) : Well Name
FLD .                                                Marten Hills (Zone 12) : Field
LOC .                                                 Surface: 1-13-74-26W4 : Location
SRVC.                                                RPS Energy Canada Ltd. : Service Company
DATE.                                                                       : Completion Date
CTRY.                                                                Canada : Country
PROV.                                                               Alberta : Province       (required if CTRY = CA)
UWI .                                                 104/04-17-074-25W4/04 : Unique Well ID (required if CTRY = CA)
LIC .                                                                503697 : License        (required if CTRY = CA)
STAT.                                                                       : State          (required if CTRY = US)
CNTY.                                                                       : County         (required if CTRY = US)
API .                                                                       : API Number     (required if CTRY = US)
LATI.DEG                                                                  0 : Latitude  - see Surface Coords comment above
LONG.DEG                                                                  0 : Longitude - see Surface Coords comment above
GDAT.                                                                       : Geodetic Datum
EKB .m                                                                688.9 : K.B. Elevation
EGL .m                                                                684.6 : Ground Level Elevation
~Curve Information -----------------------------------------
DEPTH.m  001 : Depth channel
ROP  .min/m  : 
GAS  .units  : 
GAMMA.API    : 
~Params ----------------------------------------------------
~Other -----------------------------------------------------
~ASCII -----------------------------------------------------
  650.00000    0.60000  205.00000   73.45000
  650.20000    0.70000  194.00000   79.70000
  650.40000  220.00000  142.00000   82.79000
  650.60000   41.10000  140.00000   82.56000
  650.80000    7.90000  142.00000   80.56000
  651.00000    1.20000  143.00000   80.56000
  651.20000    0.90000  142.00000   80.71000
  651.40000    0.80000  142.00000   85.00000
  651.60000    0.90000  145.00000   86.28000
  651.80000    0.90000  148.00000   88.93000
  652.00000    0.90000  154.00000   88.14000
  652.20000    0.90000  160.00000   91.75000
  652.40000    0.90000  163.00000   88.30000
  652.60000    0.90000  165.00000   84.90000
  652.80000    0.80000  170.00000   79.85000
  653.00000    0.90000  174.00000   78.26000
  653.20000    0.90000  176.00000   83.65000
  653.40000    0.90000  177.00000   85.01000
  653.60000    0.90000  179.00000   81.45000
  653.80000   16.50000  186.00000   77.06000
  654.00000    2.50000  189.00000   76.27000
  654.20000    1.00000  192.00000   77.18000
  654.40000    0.60000  195.00000   79.98000
  654.60000    0.50000  201.00000   79.36000
  654.80000    0.50000  203.00000   79.36000
  655.00000    0.50000  204.00000   77.29000
  655.20000    0.50000  206.00000   75.93000
  655.40000    0.50000  210.00000   79.53000
  655.60000    0.50000  215.00000   83.24000
  655.80000    0.50000  220.00000   84.76000
  656.00000    0.50000  253.00000   86.51000
  656.20000    0.50000  201.00000   83.26000
  656.40000    0.50000  196.00000   80.63000
  656.60000    0.50000  193.00000   81.04000
  656.80000    0.50000  189.00000   81.46000
  657.00000    0.50000  183.00000   81.97000
  657.20000    0.50000  179.00000   84.16000
  657.40000    0.50000  188.00000   83.48000
  657.60000    0.50000  197.00000   82.97000
  657.80000    0.50000  214.00000   82.84000
  658.00000    0.50000  226.00000   82.19000
  658.20000    0.50000  236.00000   81.90000
  658.40000    0.50000  244.00000   82.95000
  658.60000    0.50000  258.00000   80.25000
  658.80000    0.50000  278.00000   77.10000
  659.00000    0.50000  278.00000   77.65000
  659.20000    0.50000  277.00000   78.15000
  659.40000    0.50000  275.00000   76.45000
  659.60000    0.50000  271.00000   74.51000
  659.80000    0.50000  267.00000   72.43000
  660.00000    0.50000  261.00000   73.56000
  660.20000    0.50000  255.00000   74.47000
  660.40000    0.50000  249.00000   75.48000
  660.60000    0.50000  245.00000   75.68000
  660.80000    0.50000  242.00000   78.83000
  661.00000    0.50000  235.00000   83.54000
  661.20000    0.50000  228.00000   87.77000
  661.40000    0.50000  223.00000   87.77000
  661.60000    0.50000  221.00000   87.77000
  661.80000    0.50000  214.00000   87.83000
  662.00000    0.50000  209.00000   89.50000
  662.20000    0.50000  204.00000   92.30000
  662.40000    0.50000  199.00000   94.57000
  662.60000    0.50000  194.00000   94.68000
  662.80000    0.50000  190.00000   92.34000
  663.00000    0.50000  185.00000   89.14000
  663.20000    0.50000  180.00000   86.79000
  663.40000    0.50000  288.00000   85.47000
  663.60000  161.40000  313.00000   85.37000
  663.80000   56.20000  327.00000   85.37000
  664.00000   18.10000  356.00000   83.21000
  664.20000    5.60000  383.00000   83.94000
  664.40000    1.10000  415.00000   83.79000
  664.60000    0.60000  440.00000   81.77000
  664.80000    0.50000  464.00000   84.22000
  665.00000    0.50000  487.00000   85.42000
  665.20000    0.50000  508.00000   81.94000
  665.40000    0.50000  535.00000   77.45000
  665.60000    0.50000  565.00000   74.44000
  665.80000    0.50000  730.00000   71.18000
  666.00000    0.50000  617.00000   72.21000
  666.20000    0.50000  599.00000   75.75000
  666.40000    0.50000  588.00000   79.68000
  666.60000    0.50000  562.00000   81.77000
  666.80000    0.50000  546.00000   77.21000
  667.00000    0.50000  531.00000   77.99000
  667.20000    0.50000  543.00000   74.93000
  667.40000    0.50000  567.00000   69.76000
  667.60000    0.50000  585.00000   71.43000
  667.80000    0.50000  609.00000   72.56000
  668.00000    0.50000  621.00000   67.10000
  668.20000    0.50000  647.00000   69.84000
  668.40000    0.50000  672.00000   68.29000
  668.60000    0.50000  671.00000   69.61000
  668.80000    0.50000  671.00000   71.29000
  669.00000    0.50000  667.00000   73.96000
  669.20000    0.50000  665.00000   76.51000
  669.40000    0.50000  659.00000   81.92000
  669.60000    0.50000  654.00000   86.42000
  669.80000    0.50000  644.00000   88.13000
  670.00000    0.50000  637.00000   88.63000
  670.20000    0.50000  628.00000   86.31000
  670.40000    0.50000  621.00000   84.28000
  670.60000    0.50000  611.00000   82.65000
  670.80000    0.50000  606.00000   81.76000
  671.00000    0.50000  599.00000   81.76000
  671.20000    0.40000  596.00000   75.90000
  671.40000    0.40000  590.00000   72.19000
  671.60000    0.30000  582.00000   69.26000
  671.80000    0.30000  576.00000   63.70000
  672.00000    0.30000  574.00000   63.06000
  672.20000    0.30000  567.00000   62.40000
  672.40000    0.30000  563.00000   61.32000
  672.60000    0.30000  559.00000   61.32000
  672.80000    0.30000  556.00000   61.32000
  673.00000    0.30000  553.00000   61.42000
  673.20000    0.30000  550.00000   62.44000
  673.40000    0.30000  549.00000   62.41000
  673.60000    0.30000  549.00000   61.74000
  673.80000    0.30000  551.00000   61.51000
  674.00000    0.30000  555.00000   62.46000
  674.20000    0.30000  558.00000   61.27000
  674.40000    0.40000  568.00000   59.94000
  674.60000    0.40000  579.00000   54.75000
  674.80000    0.40000  592.00000   53.77000
  675.00000    0.40000  606.00000   52.78000
  675.20000    0.40000  620.00000   51.83000
  675.40000    0.40000  632.00000   53.66000
  675.60000    0.40000  641.00000   56.17000
  675.80000    0.40000  655.00000   57.54000
  676.00000    0.30000  671.00000   57.85000
  676.20000    0.30000 1003.00000   58.42000
  676.40000  336.00000 1026.00000   58.89000
  676.60000   75.90000 1050.00000   59.61000
  676.80000   30.80000 1066.00000   61.15000
  677.00000   13.90000 1076.00000   60.88000
  677.20000    6.40000 1089.00000   60.12000
  677.40000    2.80000 1094.00000   60.41000
  677.60000    0.90000 1105.00000   60.95000
  677.80000    0.50000 1115.00000   61.31000
  678.00000    0.30000 1122.00000   60.93000
  678.20000    0.30000 1130.00000   60.18000
  678.40000    0.30000 1139.00000   59.22000
  678.60000    0.30000 1146.00000   56.91000
  678.80000    0.40000 1158.00000   57.25000
  679.00000    0.40000 1167.00000   58.92000
  679.20000    0.30000 1183.00000   61.40000
  679.40000    0.30000 1193.00000   63.72000
  679.60000    0.30000 1201.00000   61.15000
  679.80000    0.30000 1214.00000   58.93000
  680.00000    0.30000 1220.00000   60.04000
  680.20000    0.30000 1228.00000   61.27000
  680.40000    0.30000 1236.00000   60.63000
  680.60000    0.30000 1242.00000   59.78000
  680.80000    0.30000 1245.00000   56.55000
  681.00000    0.30000 1246.00000   54.11000
  681.20000    0.30000 1246.00000   54.80000
  681.40000    0.30000 1244.00000   55.52000
  681.60000    0.40000 1244.00000   59.17000
  681.80000    0.50000 1268.00000   61.08000
  682.00000    0.70000 1290.00000   54.26000
  682.20000    0.80000 1294.00000   52.31000
  682.40000    0.70000 1281.00000   49.81000
  682.60000    0.60000 1262.00000   48.65000
  682.80000    0.50000 1242.00000   50.99000
  683.00000    0.50000 1204.00000   46.85000
  683.20000    0.70000  967.00000   46.04000
  683.40000    1.00000  929.00000   45.72000
  683.60000    0.90000  901.00000   46.51000
  683.80000    0.70000  892.00000   47.95000
  684.00000    0.60000  890.00000   49.44000
  684.20000    0.50000  890.00000   50.39000
  684.40000    0.40000  889.00000   50.50000
  684.60000    0.40000  888.00000   51.30000
  684.80000    0.30000  885.00000   54.17000
  685.00000    0.30000  882.00000   55.31000
  685.20000    0.30000  879.00000   55.31000
  685.40000    0.30000  876.00000   55.31000
