~Version ---------------------------------------------------
VERS.   2.0 : CWLS log ASCII Standard -VERSION 2.0
WRAP.    NO : One Line per Depth Step
DLM . SPACE : Delimiter between data columns - one or more spaces
~Well ------------------------------------------------------
STRT.m                                                                  650 : First Depth
STOP.m                                                                 1981 : Last Depth
STEP.m                                                                  0.2 : Depth Increment
NULL.                                                               -999.25 : NULL Value
COMP.                                                   Spur Petroleum Ltd. : Well Operator
WELL. SPL 1-13 HZ 104 MartenH 4-17-74-25 Photo Log Leg #4 (2nd Leg f/North) : Well Name
FLD .                                                Marten Hills (Zone 12) : Field
LOC .                                                 Surface: 1-13-74-26W4 : Location
SRVC.                                                RPS Energy Canada Ltd. : Service Company
DATE.                                                                       : Completion Date
CTRY.                                                                Canada : Country
PROV.                                                               Alberta : Province       (required if CTRY = CA)
UWI .                                                 104/04-17-074-25W4/04 : Unique Well ID (required if CTRY = CA)
LIC .                                                                503697 : License        (required if CTRY = CA)
STAT.                                                                       : State          (required if CTRY = US)
CNTY.                                                                       : County         (required if CTRY = US)
API .                                                                       : API Number     (required if CTRY = US)
LATI.DEG                                                                  0 : Latitude  - see Surface Coords comment above
LONG.DEG                                                                  0 : Longitude - see Surface Coords comment above
GDAT.                                                                       : Geodetic Datum
EKB .m                                                                688.9 : K.B. Elevation
EGL .m                                                                684.6 : Ground Level Elevation
~Curve Information -----------------------------------------
DEPTH.m  001 : Depth channel
ROP  .min/m  : 
GAS  .units  : 
GAMMA.API    : 
~Params ----------------------------------------------------
~Other -----------------------------------------------------
~ASCII -----------------------------------------------------
# ...
 1433.20000    0.20000  944.00000   61.08000
 1433.40000    0.20000  942.00000   63.34000
 1433.60000    0.20000  939.00000   59.09000
 1433.80000    0.20000  935.00000   58.65000
 1434.00000    0.20000  935.00000   60.84000
 1434.20000    0.30000  933.00000   62.34000
 1434.40000    0.30000  935.00000   62.44000
 1434.60000    0.30000  940.00000   61.72000
 1434.80000    0.30000  945.00000   60.25000
 1435.00000    0.30000  952.00000   59.16000
 1435.20000    0.30000  957.00000   59.99000
 1435.40000    0.30000  959.00000   60.15000
 1435.60000    0.30000  961.00000   60.33000
 1435.80000    0.30000  961.00000   60.51000
 1436.00000    0.20000  961.00000   60.67000
 1436.20000    0.20000  959.00000   60.77000
 1436.40000    0.20000  951.00000   60.80000
 1436.60000    0.20000  946.00000   60.97000
 1436.80000    0.20000  936.00000   61.95000
 1437.00000    0.20000  925.00000   63.00000
 1437.20000    0.20000  914.00000   63.26000
 1437.40000    0.20000  895.00000   63.27000
 1437.60000    0.20000  882.00000   63.35000
 1437.80000    0.20000  865.00000   63.50000
 1438.00000    0.30000  848.00000   63.69000
 1438.20000    0.30000  830.00000   63.88000
 1438.40000    0.30000  804.00000   64.06000
 1438.60000    0.30000  773.00000   59.39000
 1438.80000    0.40000  737.00000   58.20000
 1439.00000    0.40000  686.00000   58.71000
 1439.20000    0.40000  671.00000   60.09000
 1439.40000    0.40000  641.00000   60.27000
 1439.60000    0.40000  619.00000   60.46000
 1439.80000    0.30000  598.00000   60.64000
 1440.00000    0.30000  576.00000   60.80000
 1440.20000    0.30000  550.00000   59.89000
 1440.40000    0.30000  531.00000   59.53000
 1440.60000    0.30000  514.00000   59.23000
 1440.80000    0.30000  498.00000   59.28000
 1441.00000    0.20000  484.00000   59.97000
 1441.20000    0.20000  475.00000   60.11000
 1441.40000    0.20000  459.00000   60.48000
 1441.60000    0.20000  175.00000   60.95000
 1441.80000  708.20000  118.00000   61.38000
 1442.00000  290.00000  117.00000   61.61000
 1442.20000    6.30000  247.00000   61.62000
 1442.40000    1.80000  267.00000   61.62000
 1442.60000    1.00000  281.00000   60.99000
 1442.80000    0.80000  301.00000   58.58000
 1443.00000    0.80000  318.00000   57.58000
 1443.20000    0.80000  326.00000   58.92000
 1443.40000    0.70000  332.00000   59.16000
 1443.60000    0.70000  336.00000   59.16000
 1443.80000    0.60000  340.00000   59.16000
 1444.00000    0.60000  349.00000   59.16000
 1444.20000    0.60000  353.00000   59.16000
 1444.40000    6.20000  501.00000   59.16000
 1444.60000    2.30000  524.00000   59.16000
 1444.80000    1.20000  534.00000   59.24000
 1445.00000    0.80000  544.00000   59.90000
 1445.20000    0.60000  548.00000   60.84000
 1445.40000    0.50000  552.00000   61.63000
 1445.60000    0.40000  556.00000   64.75000
 1445.80000    0.30000  559.00000   65.03000
 1446.00000    0.30000  562.00000   65.17000
 1446.20000    0.30000  565.00000   65.32000
 1446.40000    0.30000  565.00000   65.47000
 1446.60000    0.30000  564.00000   65.62000
 1446.80000    0.30000  561.00000   65.77000
 1447.00000    0.30000  556.00000   65.93000
 1447.20000    0.30000  552.00000   66.08000
 1447.40000    0.20000  547.00000   66.23000
 1447.60000    0.20000  543.00000   66.37000
 1447.80000    0.20000  537.00000   66.52000
 1448.00000    0.20000  529.00000   64.29000
 1448.20000    0.20000  522.00000   61.54000
 1448.40000    0.20000  515.00000   58.16000
 1448.60000    0.20000  507.00000   57.97000
 1448.80000    0.20000  496.00000   59.84000
 1449.00000    0.30000  481.00000   60.23000
 1449.20000    0.30000  471.00000   61.20000
 1449.40000    0.40000  453.00000   62.56000
 1449.60000    0.60000  441.00000   63.94000
 1449.80000    0.70000  438.00000   64.78000
 1450.00000    0.70000  463.00000   61.86000
 1450.20000    1.00000  497.00000   59.22000
 1450.40000    0.90000  518.00000   56.64000
 1450.60000    0.70000  542.00000   55.87000
 1450.80000    0.60000  555.00000   55.87000
 1451.00000    0.50000  567.00000   56.46000
 1451.20000    0.50000  574.00000   58.37000
 1451.40000    0.50000  579.00000   51.27000
 1451.60000    0.40000  582.00000   66.94000
 1451.80000    0.40000  585.00000   64.08000
 1452.00000    0.40000  587.00000   61.83000
 1452.20000    0.30000  588.00000   61.25000
 1452.40000    0.30000  590.00000   60.57000
 1452.60000    0.30000  590.00000   57.47000
 1452.80000    0.30000  587.00000   58.08000
 1453.00000    0.30000  584.00000   61.62000
 1453.20000    0.30000  580.00000   61.39000
 1453.40000    0.30000  575.00000   60.99000
 1453.60000    0.30000  566.00000   60.80000
 1453.80000    0.30000  558.00000   60.40000
 1454.00000    0.30000  546.00000   59.98000
 1454.20000    0.30000  539.00000   60.34000
 1454.40000    0.30000  531.00000   61.12000
 1454.60000    0.30000  523.00000   61.62000
 1454.80000  400.00000  466.00000   61.91000
 1455.00000   12.80000  409.00000   62.39000
 1455.20000    2.20000  422.00000   62.34000
 1455.40000    1.10000  434.00000   61.95000
 1455.60000    0.70000  447.00000   61.64000
 1455.80000    0.50000  462.00000   61.62000
 1456.00000    0.40000  474.00000   61.58000
 1456.20000    0.40000  485.00000   61.30000
 1456.40000    0.40000  497.00000   60.96000
 1456.60000    0.40000  503.00000   60.80000
 1456.80000    0.30000  507.00000   59.14000
 1457.00000    0.30000  513.00000   57.46000
 1457.20000    0.30000  517.00000   56.74000
 1457.40000    0.30000  519.00000   57.21000
 1457.60000    0.30000  525.00000   58.15000
 1457.80000    0.30000  529.00000   59.26000
 1458.00000    0.30000  535.00000   60.34000
 1458.20000    0.30000  540.00000   61.19000
 1458.40000    0.30000  546.00000   61.61000
 1458.60000    0.30000  555.00000   61.62000
 1458.80000    0.30000  563.00000   61.62000
 1459.00000    0.30000  570.00000   60.26000
 1459.20000    0.30000  579.00000   57.52000
 1459.40000    0.30000  585.00000   56.09000
 1459.60000    0.30000  589.00000   57.48000
 1459.80000    0.30000  594.00000   57.34000
 1460.00000    0.30000  598.00000   57.20000
 1460.20000    0.30000  600.00000   57.06000
 1460.40000    0.30000  603.00000   56.91000
 1460.60000    0.30000  606.00000   56.77000
 1460.80000    0.30000  609.00000   57.65000
 1461.00000    0.30000  613.00000   59.00000
 1461.20000    0.30000  617.00000   58.61000
 1461.40000    0.30000  623.00000   58.35000
 1461.60000    0.30000  628.00000   58.91000
 1461.80000    0.20000  632.00000   59.96000
 1462.00000    0.20000  637.00000   60.06000
 1462.20000    0.20000  642.00000   60.29000
 1462.40000    0.20000  648.00000   60.57000
 1462.60000    0.20000  657.00000   60.80000
 1462.80000    0.20000  664.00000   61.42000
 1463.00000    0.20000  671.00000   59.89000
 1463.20000    0.20000  679.00000   58.17000
 1463.40000    0.30000  684.00000   57.49000
 1463.60000    0.30000  687.00000   56.87000
 1463.80000    0.30000  692.00000   56.95000
 1464.00000    0.30000  696.00000   58.58000
 1464.20000    0.30000  701.00000   60.75000
 1464.40000    0.30000  704.00000   62.27000
 1464.60000    0.30000  708.00000   60.36000
 1464.80000    0.30000  709.00000   55.59000
 1465.00000    0.30000  709.00000   56.25000
 1465.20000    0.30000  705.00000   56.95000
 1465.40000    0.30000  496.00000   57.63000
 1465.60000    0.30000  492.00000   58.24000
 1465.80000    0.30000  489.00000   58.73000
 1466.00000    0.30000  486.00000   59.05000
 1466.20000    0.30000  483.00000   59.16000
 1466.40000    0.30000  481.00000   59.47000
 1466.60000    0.30000  476.00000   60.11000
 1466.80000    0.20000  473.00000   60.85000
 1467.00000    0.20000  470.00000   61.43000
 1467.20000    0.20000  467.00000   61.61000
 1467.40000    0.20000  464.00000   61.29000
 1467.60000    0.20000  461.00000   60.62000
 1467.80000    0.30000  456.00000   59.79000
 1468.00000    0.30000  455.00000   59.00000
 1468.20000    0.30000  460.00000   58.46000
 1468.40000  235.00000  299.00000   58.33000
 1468.60000   94.10000  308.00000   58.33000
