~Version ---------------------------------------------------
VERS.   2.0 : CWLS log ASCII Standard -VERSION 2.0
WRAP.    NO : One Line per Depth Step
DLM . SPACE : Delimiter between data columns - one or more spaces
~Well ------------------------------------------------------
STRT.m                                                                  650 : First Depth
STOP.m                                                                 1981 : Last Depth
STEP.m                                                                  0.2 : Depth Increment
NULL.                                                               -999.25 : NULL Value
COMP.                                                   Spur Petroleum Ltd. : Well Operator
WELL. SPL 1-13 HZ 104 MartenH 4-17-74-25 Photo Log Leg #4 (2nd Leg f/North) : Well Name
FLD .                                                Marten Hills (Zone 12) : Field
LOC .                                                 Surface: 1-13-74-26W4 : Location
SRVC.                                                RPS Energy Canada Ltd. : Service Company
DATE.                                                                       : Completion Date
CTRY.                                                                Canada : Country
PROV.                                                               Alberta : Province       (required if CTRY = CA)
UWI .                                                 104/04-17-074-25W4/04 : Unique Well ID (required if CTRY = CA)
LIC .                                                                503697 : License        (required if CTRY = CA)
STAT.                                                                       : State          (required if CTRY = US)
CNTY.                                                                       : County         (required if CTRY = US)
API .                                                                       : API Number     (required if CTRY = US)
LATI.DEG                                                                  0 : Latitude  - see Surface Coords comment above
LONG.DEG                                                                  0 : Longitude - see Surface Coords comment above
GDAT.                                                                       : Geodetic Datum
EKB .m                                                                688.9 : K.B. Elevation
EGL .m                                                                684.6 : Ground Level Elevation
~Curve Information -----------------------------------------
DEPTH.m  001 : Depth channel
ROP  .min/m  : 
GAS  .units  : 
GAMMA.API    : 
~Params ----------------------------------------------------
~Other -----------------------------------------------------
~ASCII -----------------------------------------------------
# ...
 1077.20000    1.70000  233.00000   63.85000
 1077.40000    0.90000  238.00000   62.53000
 1077.60000    0.70000  243.00000   63.44000
 1077.80000    0.50000  246.00000   64.46000
 1078.00000    0.40000  248.00000   64.91000
 1078.20000    0.30000  249.00000   64.91000
 1078.40000    0.30000  253.00000   64.97000
 1078.60000    0.30000  256.00000   65.39000
 1078.80000    0.30000  258.00000   65.98000
 1079.00000    0.30000  262.00000   66.50000
 1079.20000    0.30000  266.00000   68.16000
 1079.40000    0.30000  273.00000   68.74000
 1079.60000    0.30000  280.00000   69.42000
 1079.80000    0.30000  287.00000   69.82000
 1080.00000    0.30000  297.00000   68.93000
 1080.20000    0.30000  310.00000   68.15000
 1080.40000    0.30000  319.00000   67.44000
 1080.60000    0.30000  326.00000   66.22000
 1080.80000    0.30000  332.00000   64.93000
 1081.00000    0.30000  339.00000   64.01000
 1081.20000    0.30000  345.00000   63.39000
 1081.40000    0.30000  353.00000   63.65000
 1081.60000    0.30000  356.00000   63.90000
 1081.80000    0.30000  360.00000   64.02000
 1082.00000    0.30000  362.00000   62.44000
 1082.20000    0.30000  362.00000   62.28000
 1082.40000    0.30000  361.00000   65.42000
 1082.60000    0.30000  357.00000   65.66000
 1082.80000    0.30000  348.00000   65.37000
 1083.00000    0.30000  340.00000   65.06000
 1083.20000    0.30000  330.00000   64.91000
 1083.40000    0.30000  320.00000   64.25000
 1083.60000    0.30000  310.00000   63.33000
 1083.80000    0.30000  298.00000   61.92000
 1084.00000    0.30000  279.00000   58.78000
 1084.20000    0.30000  269.00000   58.19000
 1084.40000    0.30000  258.00000   57.68000
 1084.60000    0.30000  243.00000   57.51000
 1084.80000    0.30000  232.00000   57.51000
 1085.00000    0.30000  223.00000   57.51000
 1085.20000    0.30000  211.00000   58.27000
 1085.40000    0.30000  200.00000   60.56000
 1085.60000    0.30000  193.00000   61.62000
 1085.80000    0.30000  186.00000   61.62000
 1086.00000  171.10000  224.00000   61.62000
 1086.20000   60.40000  276.00000   61.62000
 1086.40000   26.70000  306.00000   61.67000
 1086.60000   11.60000  329.00000   62.31000
 1086.80000    3.70000  353.00000   63.43000
 1087.00000    0.70000  380.00000   64.71000
 1087.20000    0.60000  388.00000   65.83000
 1087.40000    0.50000  410.00000   66.49000
 1087.60000    0.50000  458.00000   66.27000
 1087.80000    0.50000  289.00000   65.28000
 1088.00000    0.50000  265.00000   64.72000
 1088.20000    0.50000  259.00000   62.00000
 1088.40000    0.60000  245.00000   59.98000
 1088.60000    0.50000  234.00000   59.98000
 1088.80000    0.50000  224.00000   59.99000
 1089.00000    0.50000  217.00000   60.09000
 1089.20000    0.50000  215.00000   60.27000
 1089.40000    0.60000  210.00000   60.48000
 1089.60000    0.60000  207.00000   60.67000
 1089.80000    7.30000  230.00000   60.78000
 1090.00000    2.40000  234.00000   60.80000
 1090.20000    1.30000  235.00000   61.18000
 1090.40000    0.80000  236.00000   62.06000
 1090.60000    0.60000  238.00000   62.99000
 1090.80000    0.50000  240.00000   65.18000
 1091.00000    0.40000  243.00000   66.47000
 1091.20000    0.30000  247.00000   66.27000
 1091.40000    0.30000  249.00000   66.06000
 1091.60000    0.30000  251.00000   65.88000
 1091.80000    0.30000  252.00000   65.76000
 1092.00000    0.30000  256.00000   65.68000
 1092.20000    0.30000  258.00000   65.16000
 1092.40000    0.30000  260.00000   65.01000
 1092.60000    0.30000  265.00000   66.69000
 1092.80000    0.30000  267.00000   67.37000
 1093.00000    0.30000  270.00000   67.37000
 1093.20000    0.30000  276.00000   67.35000
 1093.40000    0.30000  279.00000   67.10000
 1093.60000    0.30000  283.00000   66.77000
 1093.80000    0.30000  289.00000   66.56000
 1094.00000    0.30000  297.00000   66.05000
 1094.20000    0.30000  302.00000   65.00000
 1094.40000    0.30000  308.00000   65.20000
 1094.60000    0.30000  317.00000   67.48000
 1094.80000    0.30000  324.00000   68.74000
 1095.00000    0.30000  334.00000   61.24000
 1095.20000    0.30000  342.00000   62.71000
 1095.40000    0.30000  353.00000   63.26000
 1095.60000    0.30000  359.00000   63.71000
 1095.80000    0.30000  365.00000   64.81000
 1096.00000    0.30000  371.00000   65.96000
 1096.20000    0.30000  376.00000   66.55000
 1096.40000    0.30000  376.00000   65.65000
 1096.60000    0.30000  376.00000   63.87000
 1096.80000    0.30000  375.00000   63.35000
 1097.00000    0.30000  372.00000   64.59000
 1097.20000    0.30000  369.00000   65.70000
 1097.40000    0.30000  365.00000   64.75000
 1097.60000    0.30000  357.00000   62.82000
 1097.80000    0.30000  347.00000   62.83000
 1098.00000    0.30000  338.00000   65.07000
 1098.20000    0.30000  329.00000   67.15000
 1098.40000    0.30000  319.00000   66.68000
 1098.60000    0.30000  304.00000   64.51000
 1098.80000    0.30000  135.00000   64.09000
 1099.00000  264.60000  142.00000   64.09000
 1099.20000   68.50000  146.00000   64.08000
 1099.40000   22.70000  150.00000   63.87000
 1099.60000    6.70000  154.00000   63.51000
 1099.80000    1.10000  157.00000   63.27000
 1100.00000    0.80000  158.00000   63.17000
 1100.20000    0.60000  160.00000   62.81000
 1100.40000    0.50000  170.00000   62.26000
 1100.60000    0.60000  194.00000   61.59000
 1100.80000    0.60000  237.00000   60.87000
 1101.00000    0.60000  279.00000   60.17000
 1101.20000    0.60000  298.00000   59.58000
 1101.40000    0.60000  331.00000   59.16000
 1101.60000    0.60000  349.00000   59.95000
 1101.80000    0.60000  364.00000   59.59000
 1102.00000    0.60000  438.00000   59.04000
 1102.20000    0.60000  385.00000   58.50000
 1102.40000    0.50000  374.00000   59.18000
 1102.60000    0.50000  355.00000   59.54000
 1102.80000    9.40000  329.00000   59.97000
 1103.00000    2.50000  273.00000   60.38000
 1103.20000    1.40000  278.00000   60.72000
 1103.40000    0.80000  279.00000   61.32000
 1103.60000    0.60000  281.00000   61.62000
 1103.80000    0.50000  283.00000   61.62000
 1104.00000    0.40000  283.00000   61.62000
 1104.20000    0.30000  283.00000   61.55000
 1104.40000    0.30000  282.00000   61.02000
 1104.60000    0.30000  282.00000   61.53000
 1104.80000    0.30000  282.00000   62.05000
 1105.00000    0.30000  282.00000   62.39000
 1105.20000    0.30000  282.00000   62.44000
 1105.40000    0.30000  282.00000   62.44000
 1105.60000    0.30000  286.00000   62.57000
 1105.80000    0.30000  301.00000   62.89000
 1106.00000    0.30000  315.00000   63.21000
 1106.20000    0.30000  328.00000   64.87000
 1106.40000    0.30000  350.00000   64.63000
 1106.60000    0.30000  362.00000   64.36000
 1106.80000    0.30000  369.00000   64.15000
 1107.00000    0.30000  367.00000   64.06000
 1107.20000    0.30000  363.00000   63.38000
 1107.40000    0.30000  357.00000   63.20000
 1107.60000    0.30000  354.00000   62.92000
 1107.80000    0.30000  349.00000   62.58000
 1108.00000    0.30000  345.00000   63.35000
 1108.20000    0.30000  342.00000   62.14000
 1108.40000    0.30000  340.00000   60.19000
 1108.60000    0.30000  338.00000   63.10000
 1108.80000    0.30000  336.00000   64.90000
 1109.00000    0.30000  334.00000   63.49000
 1109.20000    0.30000  331.00000   61.08000
 1109.40000    0.30000  328.00000   59.98000
 1109.60000    0.30000  326.00000   59.98000
 1109.80000    0.30000  324.00000   59.98000
 1110.00000    0.30000  322.00000   60.31000
 1110.20000    0.30000  320.00000   61.85000
 1110.40000    0.30000  319.00000   63.51000
 1110.60000    0.30000  318.00000   64.10000
 1110.80000    0.30000  317.00000   64.54000
 1111.00000    0.30000  315.00000   64.91000
 1111.20000    0.30000  312.00000   64.38000
 1111.40000    0.30000  310.00000   63.47000
 1111.60000    0.70000  279.00000   63.07000
 1111.80000    0.60000  167.00000   61.99000
 1112.00000  438.40000  179.00000   61.72000
 1112.20000  113.90000  208.00000   62.76000
 1112.40000   47.30000  231.00000   64.17000
 1112.60000   19.20000  268.00000   64.91000
