~Version ---------------------------------------------------
VERS.   2.0 : CWLS log ASCII Standard -VERSION 2.0
WRAP.    NO : One Line per Depth Step
DLM . SPACE : Delimiter between data columns - one or more spaces
~Well ------------------------------------------------------
STRT.m                                                                  650 : First Depth
STOP.m                                                                 1981 : Last Depth
STEP.m                                                                  0.2 : Depth Increment
NULL.                                                               -999.25 : NULL Value
COMP.                                                   Spur Petroleum Ltd. : Well Operator
WELL. SPL 1-13 HZ 104 MartenH 4-17-74-25 Photo Log Leg #4 (2nd Leg f/North) : Well Name
FLD .                                                Marten Hills (Zone 12) : Field
LOC .                                                 Surface: 1-13-74-26W4 : Location
SRVC.                                                RPS Energy Canada Ltd. : Service Company
DATE.                                                                       : Completion Date
CTRY.                                                                Canada : Country
PROV.                                                               Alberta : Province       (required if CTRY = CA)
UWI .                                                 104/04-17-074-25W4/04 : Unique Well ID (required if CTRY = CA)
LIC .                                                                503697 : License        (required if CTRY = CA)
STAT.                                                                       : State          (required if CTRY = US)
CNTY.                                                                       : County         (required if CTRY = US)
API .                                                                       : API Number     (required if CTRY = US)
LATI.DEG                                                                  0 : Latitude  - see Surface Coords comment above
LONG.DEG                                                                  0 : Longitude - see Surface Coords comment above
GDAT.                                                                       : Geodetic Datum
EKB .m                                                                688.9 : K.B. Elevation
EGL .m                                                                684.6 : Ground Level Elevation
~Curve Information -----------------------------------------
DEPTH.m  001 : Depth channel
ROP  .min/m  : 
GAS  .units  : 
GAMMA.API    : 
~Params ----------------------------------------------------
~Other -----------------------------------------------------
~ASCII -----------------------------------------------------
# ...
 1575.60000    0.30000  514.00000   63.26000
 1575.80000    0.30000  520.00000   63.65000
 1576.00000    0.30000  525.00000   64.06000
 1576.20000    0.30000  532.00000   63.24000
 1576.40000    0.30000  542.00000   62.09000
 1576.60000    0.30000  549.00000   61.62000
 1576.80000    0.30000  557.00000   61.62000
 1577.00000    0.30000  564.00000   61.62000
 1577.20000    0.30000  570.00000   61.62000
 1577.40000    0.30000  575.00000   61.62000
 1577.60000    0.30000  581.00000   61.60000
 1577.80000    0.30000  583.00000   60.96000
 1578.00000    0.30000  587.00000   60.84000
 1578.20000    0.30000  594.00000   61.10000
 1578.40000    0.30000  598.00000   61.43000
 1578.60000    0.30000  602.00000   61.48000
 1578.80000    0.30000  608.00000   60.66000
 1579.00000    0.30000  614.00000   59.77000
 1579.20000    0.30000  617.00000   58.77000
 1579.40000    0.30000  621.00000   58.34000
 1579.60000    0.30000  630.00000   59.82000
 1579.80000    0.30000  637.00000   60.13000
 1580.00000    0.20000  648.00000   60.57000
 1580.20000    0.20000  652.00000   60.57000
 1580.40000    0.30000  660.00000   60.12000
 1580.60000    0.30000  666.00000   60.78000
 1580.80000    0.30000  671.00000   61.47000
 1581.00000    0.30000  677.00000   63.05000
 1581.20000    0.30000  680.00000   61.71000
 1581.40000    0.30000  687.00000   59.52000
 1581.60000    0.30000  692.00000   59.72000
 1581.80000    0.30000  698.00000   59.98000
 1582.00000    0.20000  703.00000   59.98000
 1582.20000    0.20000  707.00000   59.95000
 1582.40000    0.20000  710.00000   59.18000
 1582.60000    0.20000  712.00000   60.41000
 1582.80000    0.20000  716.00000   60.80000
 1583.00000    0.20000  718.00000   60.47000
 1583.20000    0.30000  721.00000   58.63000
 1583.40000    0.30000  724.00000   62.99000
 1583.60000    0.30000  727.00000   62.06000
 1583.80000    0.30000  730.00000   61.02000
 1584.00000    0.30000  732.00000   59.97000
 1584.20000    0.30000  733.00000   59.01000
 1584.40000    0.30000  773.00000   58.22000
 1584.60000    0.30000  683.00000   57.69000
 1584.80000    0.30000  681.00000   57.51000
 1585.00000    0.30000  679.00000   57.51000
 1585.20000    0.30000  676.00000   58.30000
 1585.40000    0.30000  673.00000   56.71000
 1585.60000    0.30000  669.00000   59.40000
 1585.80000    0.30000  667.00000   59.95000
 1586.00000    0.30000  658.00000   57.81000
 1586.20000    0.30000  652.00000   55.87000
 1586.40000    0.30000  647.00000   55.87000
 1586.60000    0.30000  641.00000   58.30000
 1586.80000    0.30000  638.00000   60.12000
 1587.00000    0.30000  639.00000   60.79000
 1587.20000  148.10000  507.00000   60.65000
 1587.40000   39.10000  514.00000   60.40000
 1587.60000   15.90000  520.00000   60.14000
 1587.80000    6.20000  525.00000   59.34000
 1588.00000    2.10000  532.00000   59.16000
 1588.20000    0.70000  540.00000   59.16000
 1588.40000    0.50000  548.00000   62.57000
 1588.60000    0.40000  559.00000   65.24000
 1588.80000    0.30000  570.00000   64.38000
 1589.00000    0.30000  579.00000   63.29000
 1589.20000    0.30000  590.00000   64.19000
 1589.40000    0.30000  598.00000   65.23000
 1589.60000    0.30000  615.00000   66.32000
 1589.80000    0.30000  627.00000   66.55000
 1590.00000    0.30000  640.00000   66.55000
 1590.20000    0.30000  660.00000   66.32000
 1590.40000    0.30000  671.00000   63.76000
 1590.60000    0.30000  680.00000   63.16000
 1590.80000    0.30000  688.00000   62.64000
 1591.00000    0.30000  696.00000   62.44000
 1591.20000    0.30000  713.00000   62.84000
 1591.40000    0.30000  726.00000   64.80000
 1591.60000    0.30000  739.00000   66.74000
 1591.80000    0.30000  755.00000   68.73000
 1592.00000    0.30000  771.00000   69.02000
 1592.20000    0.30000  787.00000   69.02000
 1592.40000    0.30000  803.00000   68.23000
 1592.60000    0.30000  821.00000   64.47000
 1592.80000    0.30000  833.00000   58.68000
 1593.00000    0.30000  841.00000   59.41000
 1593.20000    0.30000  846.00000   60.66000
 1593.40000    0.30000  848.00000   61.93000
 1593.60000    0.30000  849.00000   61.13000
 1593.80000    0.30000  848.00000   60.94000
 1594.00000    0.30000  846.00000   61.16000
 1594.20000    0.30000  843.00000   61.38000
 1594.40000    0.30000  840.00000   61.54000
 1594.60000    0.30000  836.00000   61.62000
 1594.80000    0.30000  831.00000   63.56000
 1595.00000    0.30000  690.00000   63.79000
 1595.20000    0.30000  684.00000   62.00000
 1595.40000    0.30000  678.00000   61.80000
 1595.60000    0.30000  672.00000   62.44000
 1595.80000    0.30000  665.00000   63.01000
 1596.00000    0.30000  659.00000   64.54000
 1596.20000    0.30000  655.00000   66.58000
 1596.40000    0.30000  648.00000   68.67000
 1596.60000    0.30000  644.00000   63.86000
 1596.80000    0.30000  640.00000   62.96000
 1597.00000    0.30000  635.00000   62.10000
 1597.20000    0.30000  632.00000   61.64000
 1597.40000    0.30000  630.00000   61.78000
 1597.60000    0.30000  629.00000   62.32000
 1597.80000    0.40000  631.00000   63.03000
 1598.00000    0.40000  634.00000   63.69000
 1598.20000    0.40000  639.00000   64.06000
 1598.40000    0.40000  641.00000   63.93000
 1598.60000    0.40000  643.00000   63.27000
 1598.80000    0.40000  643.00000   62.23000
 1599.00000    0.40000  642.00000   60.99000
 1599.20000    0.40000  640.00000   59.73000
 1599.40000    0.40000  641.00000   58.61000
 1599.60000    0.40000  643.00000   57.81000
 1599.80000    0.40000  645.00000   57.51000
 1600.00000    0.40000  647.00000   54.67000
 1600.20000    0.40000  651.00000   54.31000
 1600.40000   25.10000  517.00000   54.61000
 1600.60000    5.10000  507.00000   54.95000
 1600.80000    1.10000  502.00000   54.33000
 1601.00000    0.60000  496.00000   54.71000
 1601.20000    0.50000  489.00000   55.48000
 1601.40000    0.50000  483.00000   56.23000
 1601.60000    0.50000  472.00000   56.66000
 1601.80000    0.50000  462.00000   55.97000
 1602.00000    0.60000  453.00000   55.01000
 1602.20000    0.80000  452.00000   53.53000
 1602.40000    0.90000  452.00000   51.27000
 1602.60000    0.80000  451.00000   50.12000
 1602.80000    0.70000  448.00000   50.16000
 1603.00000    0.60000  464.00000   50.75000
 1603.20000    0.60000  423.00000   51.66000
 1603.40000    0.60000  418.00000   52.41000
 1603.60000    0.50000  413.00000   52.92000
 1603.80000    0.50000  410.00000   55.46000
 1604.00000    0.40000  407.00000   56.41000
 1604.20000    0.40000  404.00000   58.74000
 1604.40000    0.30000  400.00000   61.18000
 1604.60000    0.30000  394.00000   59.38000
 1604.80000    0.40000  387.00000   58.76000
 1605.00000    0.50000  385.00000   58.20000
 1605.20000    0.60000  389.00000   57.72000
 1605.40000    0.60000  393.00000   57.51000
 1605.60000    0.60000  399.00000   57.51000
 1605.80000    0.60000  403.00000   57.49000
 1606.00000    0.60000  408.00000   56.71000
 1606.20000    0.50000  411.00000   55.51000
 1606.40000    0.50000  415.00000   54.37000
 1606.60000    0.50000  417.00000   53.71000
 1606.80000    0.40000  421.00000   54.82000
 1607.00000    0.40000  427.00000   56.00000
 1607.20000    0.40000  433.00000   56.67000
 1607.40000    0.30000  437.00000   56.69000
 1607.60000    0.40000  443.00000   56.69000
 1607.80000    0.40000  443.00000   56.55000
 1608.00000    0.40000  443.00000   56.11000
 1608.20000    0.50000  442.00000   55.87000
 1608.40000    0.60000  436.00000   55.12000
 1608.60000    0.60000  430.00000   54.67000
 1608.80000    0.60000  424.00000   53.43000
 1609.00000    0.60000  415.00000   52.18000
 1609.20000    0.60000  406.00000   51.78000
 1609.40000    0.60000  399.00000   52.22000
 1609.60000    0.60000  403.00000   54.53000
 1609.80000    0.70000  406.00000   59.07000
 1610.00000    0.60000  410.00000   60.76000
 1610.20000    0.50000  412.00000   62.61000
 1610.40000    0.40000  416.00000   64.28000
 1610.60000    0.40000  420.00000   65.42000
 1610.80000    0.30000  425.00000   65.72000
 1611.00000    0.30000  428.00000   65.62000
