~Version ---------------------------------------------------
VERS.   2.0 : CWLS log ASCII Standard -VERSION 2.0
WRAP.    NO : One Line per Depth Step
DLM . SPACE : Delimiter between data columns - one or more spaces
~Well ------------------------------------------------------
STRT.m                                                                  650 : First Depth
STOP.m                                                                 1981 : Last Depth
STEP.m                                                                  0.2 : Depth Increment
NULL.                                                               -999.25 : NULL Value
COMP.                                                   Spur Petroleum Ltd. : Well Operator
WELL. SPL 1-13 HZ 104 MartenH 4-17-74-25 Photo Log Leg #4 (2nd Leg f/North) : Well Name
FLD .                                                Marten Hills (Zone 12) : Field
LOC .                                                 Surface: 1-13-74-26W4 : Location
SRVC.                                                RPS Energy Canada Ltd. : Service Company
DATE.                                                                       : Completion Date
CTRY.                                                                Canada : Country
PROV.                                                               Alberta : Province       (required if CTRY = CA)
UWI .                                                 104/04-17-074-25W4/04 : Unique Well ID (required if CTRY = CA)
LIC .                                                                503697 : License        (required if CTRY = CA)
STAT.                                                                       : State          (required if CTRY = US)
CNTY.                                                                       : County         (required if CTRY = US)
API .                                                                       : API Number     (required if CTRY = US)
LATI.DEG                                                                  0 : Latitude  - see Surface Coords comment above
LONG.DEG                                                                  0 : Longitude - see Surface Coords comment above
GDAT.                                                                       : Geodetic Datum
EKB .m                                                                688.9 : K.B. Elevation
EGL .m                                                                684.6 : Ground Level Elevation
~Curve Information -----------------------------------------
DEPTH.m  001 : Depth channel
ROP  .min/m  : 
GAS  .units  : 
GAMMA.API    : 
~Params ----------------------------------------------------
~Other -----------------------------------------------------
~ASCII -----------------------------------------------------
# ...
 1255.20000    0.30000  562.00000   57.52000
 1255.40000    0.30000  568.00000   57.74000
 1255.60000    0.30000  575.00000   58.50000
 1255.80000    0.30000  578.00000   59.56000
 1256.00000    0.30000  579.00000   60.68000
 1256.20000    0.30000  579.00000   61.63000
 1256.40000    0.30000  577.00000   65.18000
 1256.60000    0.30000  571.00000   65.60000
 1256.80000    0.30000  568.00000   64.84000
 1257.00000    0.30000  562.00000   63.72000
 1257.20000    0.30000  556.00000   62.37000
 1257.40000    0.30000  548.00000   61.52000
 1257.60000    0.30000  740.00000   60.77000
 1257.80000   36.20000  779.00000   59.99000
 1258.00000   12.60000  793.00000   59.25000
 1258.20000    4.20000  802.00000   59.36000
 1258.40000    1.10000  810.00000   60.16000
 1258.60000    0.70000  816.00000   61.11000
 1258.80000    0.50000  820.00000   61.27000
 1259.00000    0.40000  824.00000   60.80000
 1259.20000    0.30000  827.00000   60.80000
 1259.40000    0.30000  828.00000   61.57000
 1259.60000    0.20000  830.00000   62.79000
 1259.80000    0.20000  830.00000   63.28000
 1260.00000    0.20000  830.00000   63.75000
 1260.20000    0.30000  829.00000   64.07000
 1260.40000    0.30000  826.00000   63.27000
 1260.60000    0.30000  822.00000   62.09000
 1260.80000    0.30000  818.00000   60.76000
 1261.00000    0.30000  812.00000   59.98000
 1261.20000    0.30000  806.00000   59.98000
 1261.40000    0.30000  802.00000   59.98000
 1261.60000    0.30000  795.00000   57.37000
 1261.80000    0.30000  791.00000   56.76000
 1262.00000    0.30000  788.00000   56.69000
 1262.20000    0.30000  781.00000   56.69000
 1262.40000    0.30000  775.00000   56.73000
 1262.60000    0.30000  769.00000   58.57000
 1262.80000    0.30000  758.00000   59.09000
 1263.00000    0.30000  750.00000   59.16000
 1263.20000    0.30000  738.00000   59.17000
 1263.40000    0.30000  730.00000   60.06000
 1263.60000    0.30000  719.00000   61.63000
 1263.80000    0.30000  705.00000   62.96000
 1264.00000    0.30000  702.00000   63.13000
 1264.20000    0.30000  689.00000   62.44000
 1264.40000    0.30000  680.00000   61.52000
 1264.60000    0.30000  668.00000   59.61000
 1264.80000    0.30000  658.00000   58.36000
 1265.00000    0.30000  649.00000   55.85000
 1265.20000    0.30000  640.00000   55.07000
 1265.40000    0.30000  627.00000   55.20000
 1265.60000    0.30000  616.00000   55.38000
 1265.80000    0.30000  606.00000   55.59000
 1266.00000    0.30000  596.00000   55.77000
 1266.20000    0.30000  585.00000   55.86000
 1266.40000    0.30000  580.00000   55.20000
 1266.60000    0.30000  569.00000   54.23000
 1266.80000    0.30000  562.00000   54.23000
 1267.00000    0.30000  554.00000   54.23000
 1267.20000    0.30000  544.00000   54.23000
 1267.40000    0.30000  534.00000   53.41000
 1267.60000    0.30000  528.00000   56.44000
 1267.80000    0.30000  520.00000   53.49000
 1268.00000    0.30000  514.00000   53.83000
 1268.20000    0.30000  507.00000   57.52000
 1268.40000    0.30000  500.00000   51.58000
 1268.60000    0.50000  490.00000   48.58000
 1268.80000    0.60000  484.00000   50.72000
 1269.00000    0.60000  479.00000   52.58000
 1269.20000    0.60000  474.00000   52.58000
 1269.40000    0.60000  462.00000   52.58000
 1269.60000    0.60000  450.00000   51.88000
 1269.80000    0.60000  440.00000   53.08000
 1270.00000    0.60000  441.00000   51.18000
 1270.20000    0.60000  449.00000   48.67000
 1270.40000    0.60000  455.00000   47.70000
 1270.60000    0.60000  460.00000   49.68000
 1270.80000    0.50000  461.00000   52.47000
 1271.00000    0.50000  516.00000   53.31000
 1271.20000   64.20000  306.00000   51.32000
 1271.40000   18.80000  294.00000   48.07000
 1271.60000    5.00000  286.00000   45.22000
 1271.80000    0.90000  287.00000   44.38000
 1272.00000    0.60000  293.00000   44.79000
 1272.20000    0.40000  301.00000   45.63000
 1272.40000    0.40000  311.00000   46.76000
 1272.60000    0.40000  329.00000   48.04000
 1272.80000    0.40000  346.00000   49.32000
 1273.00000    0.40000  364.00000   50.46000
 1273.20000    0.40000  388.00000   51.32000
 1273.40000    0.50000  402.00000   51.74000
 1273.60000    0.40000  419.00000   51.75000
 1273.80000    0.40000  433.00000   51.14000
 1274.00000    0.40000  439.00000   50.03000
 1274.20000    0.50000  440.00000   48.94000
 1274.40000    0.50000  441.00000   48.28000
 1274.60000    0.50000  440.00000   47.69000
 1274.80000    0.50000  435.00000   47.95000
 1275.00000    0.50000  432.00000   48.26000
 1275.20000    0.40000  423.00000   48.60000
 1275.40000    0.40000  415.00000   48.93000
 1275.60000    0.40000  407.00000   49.23000
 1275.80000    0.40000  401.00000   50.48000
 1276.00000    0.40000  395.00000   51.33000
 1276.20000    0.40000  391.00000   52.15000
 1276.40000    0.40000  386.00000   52.95000
 1276.60000    0.40000  382.00000   53.39000
 1276.80000    0.30000  377.00000   53.40000
 1277.00000    0.30000  375.00000   53.39000
 1277.20000    0.30000  371.00000   52.21000
 1277.40000    0.30000  370.00000   49.73000
 1277.60000    0.30000  373.00000   46.94000
 1277.80000    0.40000  381.00000   44.82000
 1278.00000    0.40000  394.00000   43.68000
 1278.20000    0.50000  411.00000   44.64000
 1278.40000    0.50000  431.00000   46.66000
 1278.60000    0.50000  453.00000   48.24000
 1278.80000    0.50000  484.00000   49.53000
 1279.00000    0.50000  508.00000   52.57000
 1279.20000    0.50000  524.00000   53.20000
 1279.40000    0.50000  533.00000   54.81000
 1279.60000    0.50000  533.00000   56.85000
 1279.80000    0.50000  529.00000   58.73000
 1280.00000    0.40000  517.00000   59.86000
 1280.20000    0.40000  499.00000   60.13000
 1280.40000    0.40000  483.00000   60.69000
 1280.60000    0.40000  470.00000   58.84000
 1280.80000    0.30000  454.00000   60.35000
 1281.00000    0.30000  443.00000   60.86000
 1281.20000    0.30000  427.00000   61.52000
 1281.40000    0.30000  418.00000   62.49000
 1281.60000    0.30000  409.00000   63.18000
 1281.80000    0.30000  398.00000   63.41000
 1282.00000    0.30000  391.00000   63.93000
 1282.20000    0.30000  382.00000   63.97000
 1282.40000    0.30000  376.00000   62.79000
 1282.60000    0.20000  367.00000   61.15000
 1282.80000    0.20000  356.00000   60.05000
 1283.00000    0.20000  350.00000   60.73000
 1283.20000    0.20000  342.00000   62.37000
 1283.40000    0.20000  334.00000   62.04000
 1283.60000    0.20000  326.00000   60.91000
 1283.80000    0.20000  324.00000   60.04000
 1284.00000    0.20000  310.00000   57.75000
 1284.20000    0.20000  274.00000   54.22000
 1284.40000  139.20000   89.00000   53.16000
 1284.60000   52.80000   90.00000   52.87000
 1284.80000    1.80000   88.00000   55.01000
 1285.00000    1.20000   94.00000   55.05000
 1285.20000    0.80000  113.00000   55.05000
 1285.40000    0.80000  146.00000   55.05000
 1285.60000    1.20000  208.00000   55.05000
 1285.80000    1.30000  228.00000   54.96000
 1286.00000    1.20000  245.00000   54.74000
 1286.20000    1.20000  259.00000   54.45000
 1286.40000    1.10000  283.00000   54.13000
 1286.60000    1.10000  307.00000   53.82000
 1286.80000    1.00000  352.00000   53.57000
 1287.00000    1.10000  422.00000   53.42000
 1287.20000    2.30000  518.00000   53.40000
 1287.40000    1.20000  521.00000   53.40000
 1287.60000    0.50000  566.00000   53.40000
 1287.80000    0.50000  583.00000   53.40000
 1288.00000    0.50000  598.00000   54.19000
 1288.20000    0.50000  613.00000   55.77000
 1288.40000    0.40000  620.00000   56.21000
 1288.60000    0.40000  636.00000   57.42000
 1288.80000    0.30000  647.00000   58.85000
 1289.00000    0.30000  652.00000   59.85000
 1289.20000    0.30000  662.00000   60.25000
 1289.40000    0.30000  673.00000   60.79000
 1289.60000    0.30000  683.00000   60.19000
 1289.80000    0.30000  693.00000   59.13000
 1290.00000    0.30000  706.00000   58.33000
 1290.20000    0.20000  715.00000   57.51000
 1290.40000    0.20000  720.00000   57.51000
 1290.60000    0.20000  726.00000   57.51000
