~Version ---------------------------------------------------
VERS.   2.0 : CWLS log ASCII Standard -VERSION 2.0
WRAP.    NO : One Line per Depth Step
DLM . SPACE : Delimiter between data columns - one or more spaces
~Well ------------------------------------------------------
STRT.m                                                                  650 : First Depth
STOP.m                                                                 1981 : Last Depth
STEP.m                                                                  0.2 : Depth Increment
NULL.                                                               -999.25 : NULL Value
COMP.                                                   Spur Petroleum Ltd. : Well Operator
WELL. SPL 1-13 HZ 104 MartenH 4-17-74-25 Photo Log Leg #4 (2nd Leg f/North) : Well Name
FLD .                                                Marten Hills (Zone 12) : Field
LOC .                                                 Surface: 1-13-74-26W4 : Location
SRVC.                                                RPS Energy Canada Ltd. : Service Company
DATE.                                                                       : Completion Date
CTRY.                                                                Canada : Country
PROV.                                                               Alberta : Province       (required if CTRY = CA)
UWI .                                                 104/04-17-074-25W4/04 : Unique Well ID (required if CTRY = CA)
LIC .                                                                503697 : License        (required if CTRY = CA)
STAT.                                                                       : State          (required if CTRY = US)
CNTY.                                                                       : County         (required if CTRY = US)
API .                                                                       : API Number     (required if CTRY = US)
LATI.DEG                                                                  0 : Latitude  - see Surface Coords comment above
LONG.DEG                                                                  0 : Longitude - see Surface Coords comment above
GDAT.                                                                       : Geodetic Datum
EKB .m                                                                688.9 : K.B. Elevation
EGL .m                                                                684.6 : Ground Level Elevation
~Curve Information -----------------------------------------
DEPTH.m  001 : Depth channel
ROP  .min/m  : 
GAS  .units  : 
GAMMA.API    : 
~Params ----------------------------------------------------
~Other -----------------------------------------------------
~ASCII -----------------------------------------------------
# ...
 1682.40000    0.30000  675.00000   64.02000
 1682.60000    0.30000  674.00000   65.94000
 1682.80000    0.30000  673.00000   67.39000
 1683.00000    0.30000  671.00000   68.67000
 1683.20000    0.30000  670.00000   67.54000
 1683.40000    0.30000  671.00000   66.24000
 1683.60000    0.30000  673.00000   65.05000
 1683.80000    0.30000  682.00000   64.25000
 1684.00000    0.30000  688.00000   63.49000
 1684.20000    0.30000  694.00000   60.80000
 1684.40000    0.30000  700.00000   61.17000
 1684.60000    0.30000  707.00000   61.96000
 1684.80000    0.30000  714.00000   62.83000
 1685.00000    0.30000  721.00000   64.61000
 1685.20000    0.30000  727.00000   64.44000
 1685.40000    0.30000  731.00000   63.77000
 1685.60000    0.30000  736.00000   63.12000
 1685.80000    0.30000  738.00000   62.62000
 1686.00000    0.30000  740.00000   62.44000
 1686.20000    0.30000  740.00000   62.44000
 1686.40000    0.30000  738.00000   62.35000
 1686.60000    0.30000  736.00000   61.92000
 1686.80000    0.30000  736.00000   61.34000
 1687.00000    0.30000  736.00000   60.81000
 1687.20000    0.30000  737.00000   58.33000
 1687.40000    0.30000  739.00000   58.33000
 1687.60000    0.30000  742.00000   58.33000
 1687.80000    0.30000  745.00000   58.33000
 1688.00000    0.30000  746.00000   58.33000
 1688.20000    0.30000  746.00000   58.65000
 1688.40000    0.30000  746.00000   58.73000
 1688.60000    0.30000  745.00000   58.03000
 1688.80000    0.30000  744.00000   57.52000
 1689.00000    0.30000  743.00000   57.03000
 1689.20000    0.30000  741.00000   56.72000
 1689.40000    0.30000  741.00000   57.09000
 1689.60000    0.30000  740.00000   59.99000
 1689.80000    0.30000  738.00000   61.88000
 1690.00000    0.30000  738.00000   62.17000
 1690.20000    0.30000  737.00000   62.43000
 1690.40000    0.30000  736.00000   58.38000
 1690.60000    0.30000  735.00000   61.73000
 1690.80000    0.30000  735.00000   62.52000
 1691.00000    0.30000  734.00000   63.38000
 1691.20000    0.30000  730.00000   63.98000
 1691.40000    0.30000  725.00000   63.73000
 1691.60000    0.30000  720.00000   61.84000
 1691.80000    0.30000  714.00000   57.76000
 1692.00000    0.30000  734.00000   59.16000
 1692.20000    0.30000  590.00000   61.17000
 1692.40000   38.30000  599.00000   61.62000
 1692.60000   13.60000  610.00000   61.62000
 1692.80000    4.90000  616.00000   60.51000
 1693.00000    1.40000  621.00000   59.15000
 1693.20000    0.70000  624.00000   59.00000
 1693.40000    0.50000  632.00000   58.70000
 1693.60000    0.40000  638.00000   58.43000
 1693.80000    0.30000  645.00000   58.38000
 1694.00000    0.30000  649.00000   59.42000
 1694.20000    0.30000  653.00000   60.14000
 1694.40000    0.30000  656.00000   63.02000
 1694.60000    0.20000  661.00000   64.92000
 1694.80000    0.30000  663.00000   65.73000
 1695.00000    0.30000  665.00000   66.54000
 1695.20000    0.30000  666.00000   66.33000
 1695.40000    0.30000  668.00000   65.69000
 1695.60000    0.30000  671.00000   64.79000
 1695.80000    0.30000  672.00000   63.82000
 1696.00000    0.30000  673.00000   62.96000
 1696.20000    0.30000  675.00000   62.36000
 1696.40000    0.30000  678.00000   61.74000
 1696.60000    0.30000  684.00000   62.25000
 1696.80000    0.30000  688.00000   62.83000
 1697.00000    0.30000  691.00000   63.68000
 1697.20000    0.30000  696.00000   66.49000
 1697.40000    0.30000  700.00000   66.30000
 1697.60000    0.30000  704.00000   66.11000
 1697.80000    0.30000  707.00000   65.93000
 1698.00000    0.30000  710.00000   65.76000
 1698.20000    0.30000  712.00000   64.95000
 1698.40000    0.30000  716.00000   64.65000
 1698.60000    0.30000  720.00000   64.30000
 1698.80000    0.30000  723.00000   64.09000
 1699.00000    0.30000  729.00000   64.09000
 1699.20000    0.30000  736.00000   64.49000
 1699.40000    0.30000  740.00000   65.33000
 1699.60000    0.30000  748.00000   66.31000
 1699.80000    0.30000  757.00000   67.12000
 1700.00000    0.30000  774.00000   67.76000
 1700.20000    0.30000  787.00000   68.10000
 1700.40000    0.20000  800.00000   67.79000
 1700.60000    0.20000  811.00000   67.49000
 1700.80000    0.20000  827.00000   67.37000
 1701.00000    0.20000  844.00000   67.22000
 1701.20000    0.20000  858.00000   66.39000
 1701.40000    0.20000  876.00000   65.41000
 1701.60000    0.20000  889.00000   64.91000
 1701.80000    0.20000  901.00000   66.76000
 1702.00000    0.20000  910.00000   67.22000
 1702.20000    0.20000  915.00000   66.37000
 1702.40000    0.20000  922.00000   65.38000
 1702.60000    0.20000  927.00000   64.91000
 1702.80000    0.20000  927.00000   64.91000
 1703.00000    0.20000  925.00000   64.91000
 1703.20000    0.20000  922.00000   64.91000
 1703.40000    0.20000  914.00000   64.91000
 1703.60000    0.20000  904.00000   65.28000
 1703.80000    0.20000  897.00000   65.69000
 1704.00000    0.20000  876.00000   65.08000
 1704.20000    0.20000  862.00000   64.66000
 1704.40000    0.20000  848.00000   63.52000
 1704.60000    0.20000  839.00000   62.83000
 1704.80000    0.20000  825.00000   60.25000
 1705.00000    0.20000  807.00000   57.45000
 1705.20000    0.20000  787.00000   56.58000
 1705.40000   79.90000  473.00000   55.87000
 1705.60000   21.70000  450.00000   54.45000
 1705.80000    7.70000  436.00000   52.62000
 1706.00000    2.40000  428.00000   53.82000
 1706.20000    0.80000  422.00000   55.79000
 1706.40000    3.50000  419.00000   56.21000
 1706.60000    1.30000  326.00000   57.21000
 1706.80000    0.90000  363.00000   58.14000
 1707.00000    0.60000  347.00000   58.33000
 1707.20000    0.60000  334.00000   58.33000
 1707.40000    1.50000  294.00000   58.60000
 1707.60000    1.10000  295.00000   59.02000
 1707.80000    1.00000  301.00000   59.25000
 1708.00000    0.70000  309.00000   60.27000
 1708.20000    0.70000  315.00000   60.82000
 1708.40000    0.80000  317.00000   61.38000
 1708.60000    0.80000  332.00000   62.33000
 1708.80000    1.70000  373.00000   63.11000
 1709.00000    1.50000  381.00000   63.26000
 1709.20000    1.00000  382.00000   63.75000
 1709.40000    0.80000  382.00000   65.88000
 1709.60000    4.80000  547.00000   67.88000
 1709.80000    2.20000  556.00000   68.55000
 1710.00000    1.10000  577.00000   69.78000
 1710.20000    0.70000  585.00000   69.02000
 1710.40000    0.50000  597.00000   66.33000
 1710.60000    0.40000  606.00000   62.99000
 1710.80000    0.40000  614.00000   60.26000
 1711.00000    0.30000  627.00000   57.04000
 1711.20000    0.30000  638.00000   59.01000
 1711.40000    0.30000  645.00000   60.94000
 1711.60000    0.30000  652.00000   61.59000
 1711.80000    0.30000  656.00000   60.89000
 1712.00000    0.30000  661.00000   60.86000
 1712.20000    0.30000  666.00000   61.14000
 1712.40000    0.30000  669.00000   61.54000
 1712.60000    0.30000  671.00000   61.97000
 1712.80000    0.30000  674.00000   62.35000
 1713.00000    0.30000  676.00000   63.31000
 1713.20000    0.30000  678.00000   64.53000
 1713.40000    0.30000  680.00000   66.21000
 1713.60000    0.30000  681.00000   67.80000
 1713.80000    0.30000  686.00000   68.09000
 1714.00000    0.30000  691.00000   67.41000
 1714.20000    0.30000  695.00000   66.67000
 1714.40000    0.30000  699.00000   64.44000
 1714.60000    0.30000  702.00000   61.86000
 1714.80000    0.30000  706.00000   55.44000
 1715.00000    0.30000  707.00000   60.95000
 1715.20000    0.30000  707.00000   61.33000
 1715.40000    0.30000  706.00000   61.74000
 1715.60000    0.30000  705.00000   62.10000
 1715.80000    0.30000  704.00000   62.36000
 1716.00000    0.30000  702.00000   62.44000
 1716.20000    0.30000  700.00000   62.53000
 1716.40000    0.30000  693.00000   62.72000
 1716.60000    0.30000  688.00000   62.95000
 1716.80000    0.30000  683.00000   63.15000
 1717.00000    0.30000  679.00000   63.26000
 1717.20000    0.30000  672.00000   63.26000
 1717.40000    0.30000  667.00000   63.26000
 1717.60000    0.30000  661.00000   63.26000
 1717.80000    0.30000  649.00000   63.26000
