~Version ---------------------------------------------------
VERS.   2.0 : CWLS log ASCII Standard -VERSION 2.0
WRAP.    NO : One Line per Depth Step
DLM . SPACE : Delimiter between data columns - one or more spaces
~Well ------------------------------------------------------
STRT.m                                                                  650 : First Depth
STOP.m                                                                 1981 : Last Depth
STEP.m                                                                  0.2 : Depth Increment
NULL.                                                               -999.25 : NULL Value
COMP.                                                   Spur Petroleum Ltd. : Well Operator
WELL. SPL 1-13 HZ 104 MartenH 4-17-74-25 Photo Log Leg #4 (2nd Leg f/North) : Well Name
FLD .                                                Marten Hills (Zone 12) : Field
LOC .                                                 Surface: 1-13-74-26W4 : Location
SRVC.                                                RPS Energy Canada Ltd. : Service Company
DATE.                                                                       : Completion Date
CTRY.                                                                Canada : Country
PROV.                                                               Alberta : Province       (required if CTRY = CA)
UWI .                                                 104/04-17-074-25W4/04 : Unique Well ID (required if CTRY = CA)
LIC .                                                                503697 : License        (required if CTRY = CA)
STAT.                                                                       : State          (required if CTRY = US)
CNTY.                                                                       : County         (required if CTRY = US)
API .                                                                       : API Number     (required if CTRY = US)
LATI.DEG                                                                  0 : Latitude  - see Surface Coords comment above
LONG.DEG                                                                  0 : Longitude - see Surface Coords comment above
GDAT.                                                                       : Geodetic Datum
EKB .m                                                                688.9 : K.B. Elevation
EGL .m                                                                684.6 : Ground Level Elevation
~Curve Information -----------------------------------------
DEPTH.m  001 : Depth channel
ROP  .min/m  : 
GAS  .units  : 
GAMMA.API    : 
~Params ----------------------------------------------------
~Other -----------------------------------------------------
~ASCII -----------------------------------------------------
# ...
 1504.40000    0.30000  790.00000   68.84000
 1504.60000    0.30000  787.00000   67.98000
 1504.80000    0.30000  785.00000   63.38000
 1505.00000    0.30000  775.00000   64.03000
 1505.20000    0.30000  765.00000   64.74000
 1505.40000    0.30000  756.00000   65.34000
 1505.60000    0.30000  748.00000   65.69000
 1505.80000    0.30000  737.00000   65.09000
 1506.00000    0.30000  729.00000   63.35000
 1506.20000    0.30000  722.00000   62.63000
 1506.40000    0.30000  708.00000   60.91000
 1506.60000    0.30000  702.00000   61.85000
 1506.80000    0.30000  689.00000   65.73000
 1507.00000    0.30000  678.00000   65.73000
 1507.20000    0.30000  667.00000   65.73000
 1507.40000    0.30000  650.00000   65.09000
 1507.60000    0.30000  647.00000   63.36000
 1507.80000    0.30000  637.00000   64.81000
 1508.00000    0.30000  627.00000   64.02000
 1508.20000  136.30000  475.00000   63.08000
 1508.40000   37.10000  459.00000   62.06000
 1508.60000   13.30000  450.00000   61.08000
 1508.80000    5.10000  444.00000   60.23000
 1509.00000    1.80000  435.00000   61.95000
 1509.20000    0.70000  343.00000   62.89000
 1509.40000    0.50000  340.00000   63.60000
 1509.60000    0.40000  338.00000   64.06000
 1509.80000    0.30000  336.00000   64.09000
 1510.00000    0.30000  334.00000   64.09000
 1510.20000    3.10000  318.00000   63.98000
 1510.40000    1.30000  197.00000   63.76000
 1510.60000    0.90000  191.00000   63.50000
 1510.80000    0.70000  187.00000   63.31000
 1511.00000    0.70000  181.00000   63.64000
 1511.20000    0.80000  172.00000   66.40000
 1511.40000    1.40000  175.00000   66.09000
 1511.60000    1.30000  182.00000   65.10000
 1511.80000    1.20000  191.00000   64.82000
 1512.00000    7.30000  369.00000   64.28000
 1512.20000    2.60000  395.00000   63.50000
 1512.40000    1.30000  411.00000   62.79000
 1512.60000    0.80000  427.00000   62.44000
 1512.80000    0.60000  438.00000   62.67000
 1513.00000    0.40000  451.00000   63.30000
 1513.20000    0.40000  461.00000   64.14000
 1513.40000    0.30000  471.00000   64.96000
 1513.60000    0.30000  482.00000   65.56000
 1513.80000    0.30000  490.00000   65.73000
 1514.00000    0.30000  500.00000   65.73000
 1514.20000    0.30000  508.00000   65.73000
 1514.40000    0.30000  515.00000   65.07000
 1514.60000    0.30000  521.00000   64.20000
 1514.80000    0.30000  528.00000   63.38000
 1515.00000    0.30000  537.00000   62.50000
 1515.20000    0.30000  543.00000   63.47000
 1515.40000    0.30000  546.00000   64.87000
 1515.60000    0.30000  551.00000   65.71000
 1515.80000    0.30000  554.00000   65.73000
 1516.00000    0.30000  557.00000   65.73000
 1516.20000    0.30000  559.00000   65.73000
 1516.40000    0.30000  562.00000   65.73000
 1516.60000    0.30000  565.00000   65.88000
 1516.80000    0.30000  569.00000   67.24000
 1517.00000    0.30000  574.00000   68.01000
 1517.20000    0.30000  577.00000   70.28000
 1517.40000    0.30000  582.00000   72.81000
 1517.60000    0.30000  588.00000   62.73000
 1517.80000    0.30000  594.00000   63.12000
 1518.00000    0.30000  597.00000   63.28000
 1518.20000    0.30000  601.00000   63.99000
 1518.40000    0.30000  603.00000   65.43000
 1518.60000    0.30000  606.00000   67.09000
 1518.80000    0.30000  607.00000   68.45000
 1519.00000    0.30000  609.00000   69.02000
 1519.20000    0.30000  610.00000   65.63000
 1519.40000    0.30000  611.00000   64.33000
 1519.60000    0.30000  611.00000   66.14000
 1519.80000    0.30000  610.00000   67.37000
 1520.00000    0.30000  609.00000   66.76000
 1520.20000    0.30000  608.00000   65.83000
 1520.40000    0.30000  604.00000   66.40000
 1520.60000    0.30000  597.00000   64.90000
 1520.80000    0.30000  591.00000   64.09000
 1521.00000    0.30000  584.00000   64.10000
 1521.20000    0.30000  576.00000   64.39000
 1521.40000    0.30000  293.00000   64.93000
 1521.60000    0.30000  151.00000   65.55000
 1521.80000  144.30000  146.00000   66.12000
 1522.00000   46.50000  144.00000   66.49000
 1522.20000   16.90000  144.00000   66.56000
 1522.40000    5.80000  145.00000   66.67000
 1522.60000    1.90000  148.00000   66.85000
 1522.80000    0.70000  153.00000   67.06000
 1523.00000    0.70000  155.00000   67.24000
 1523.20000    0.70000  156.00000   67.36000
 1523.40000    0.70000  158.00000   67.37000
 1523.60000    0.90000  158.00000   67.33000
 1523.80000    0.80000  157.00000   67.00000
 1524.00000    0.70000  156.00000   66.64000
 1524.20000    0.60000  160.00000   66.34000
 1524.40000    0.60000  173.00000   64.98000
 1524.60000    4.10000  354.00000   64.65000
 1524.80000    1.70000  363.00000   63.81000
 1525.00000    1.00000  374.00000   62.77000
 1525.20000    0.70000  379.00000   61.91000
 1525.40000    0.50000  385.00000   61.62000
 1525.60000    0.40000  390.00000   61.62000
 1525.80000    0.30000  396.00000   61.62000
 1526.00000    0.30000  399.00000   61.09000
 1526.20000    0.30000  403.00000   60.18000
 1526.40000    0.30000  406.00000   60.19000
 1526.60000    0.30000  407.00000   60.81000
 1526.80000    0.30000  408.00000   61.88000
 1527.00000    0.30000  408.00000   63.73000
 1527.20000    0.30000  407.00000   64.88000
 1527.40000    0.30000  405.00000   64.91000
 1527.60000    0.30000  400.00000   64.91000
 1527.80000    0.30000  394.00000   65.40000
 1528.00000    0.30000  391.00000   67.94000
 1528.20000    4.00000  384.00000   69.16000
 1528.40000    1.70000  184.00000   71.11000
 1528.60000    1.00000  183.00000   71.07000
 1528.80000    0.70000  182.00000   69.17000
 1529.00000    0.50000  181.00000   67.16000
 1529.20000    0.40000  181.00000   66.46000
 1529.40000    0.30000  181.00000   65.13000
 1529.60000    0.30000  181.00000   64.09000
 1529.80000    0.30000  182.00000   64.09000
 1530.00000    0.30000  184.00000   64.09000
 1530.20000    0.30000  186.00000   63.29000
 1530.40000    0.30000  189.00000   59.18000
 1530.60000    0.30000  191.00000   59.77000
 1530.80000    0.30000  193.00000   60.45000
 1531.00000    0.30000  195.00000   61.17000
 1531.20000    0.30000  198.00000   61.92000
 1531.40000    0.30000  206.00000   62.68000
 1531.60000    0.30000  212.00000   63.40000
 1531.80000    0.30000  221.00000   64.07000
 1532.00000    0.30000  231.00000   64.67000
 1532.20000    0.30000  248.00000   65.15000
 1532.40000    0.30000  257.00000   65.51000
 1532.60000    0.30000  278.00000   65.70000
 1532.80000    0.30000  294.00000   65.73000
 1533.00000    0.30000  317.00000   65.83000
 1533.20000    0.30000  334.00000   66.11000
 1533.40000    0.30000  351.00000   66.43000
 1533.60000    0.30000  372.00000   67.17000
 1533.80000    0.30000  393.00000   66.89000
 1534.00000    0.30000  408.00000   66.03000
 1534.20000    0.30000  503.00000   65.06000
 1534.40000  144.40000  467.00000   64.15000
 1534.60000   37.60000  466.00000   63.49000
 1534.80000   13.00000  466.00000   63.25000
 1535.00000    6.40000  465.00000   61.96000
 1535.20000    2.90000  463.00000   60.80000
 1535.40000    0.80000  462.00000   62.69000
 1535.60000    0.50000  459.00000   64.12000
 1535.80000    0.30000  457.00000   65.06000
 1536.00000    2.90000  247.00000   65.73000
 1536.20000    1.20000  231.00000   65.38000
 1536.40000    0.90000  239.00000   64.72000
 1536.60000    0.70000  244.00000   64.18000
 1536.80000    0.50000  249.00000   64.73000
 1537.00000    0.50000  258.00000   67.80000
 1537.20000    0.50000  262.00000   68.05000
 1537.40000    1.70000  263.00000   67.45000
 1537.60000    1.00000  272.00000   66.77000
 1537.80000    3.80000  321.00000   67.01000
 1538.00000    1.70000  308.00000   67.25000
 1538.20000    1.00000  305.00000   66.97000
 1538.40000    0.70000  305.00000   66.70000
 1538.60000    0.50000  304.00000   66.55000
 1538.80000    0.40000  303.00000   65.56000
 1539.00000    0.40000  305.00000   64.85000
 1539.20000    0.30000  307.00000   64.26000
 1539.40000    0.30000  309.00000   63.53000
 1539.60000    0.30000  312.00000   63.26000
 1539.80000    0.30000  318.00000   63.26000
