~Version ---------------------------------------------------
VERS.   2.0 : CWLS log ASCII Standard -VERSION 2.0
WRAP.    NO : One Line per Depth Step
DLM . SPACE : Delimiter between data columns - one or more spaces
~Well ------------------------------------------------------
STRT.m                                                                  650 : First Depth
STOP.m                                                                 1981 : Last Depth
STEP.m                                                                  0.2 : Depth Increment
NULL.                                                               -999.25 : NULL Value
COMP.                                                   Spur Petroleum Ltd. : Well Operator
WELL. SPL 1-13 HZ 104 MartenH 4-17-74-25 Photo Log Leg #4 (2nd Leg f/North) : Well Name
FLD .                                                Marten Hills (Zone 12) : Field
LOC .                                                 Surface: 1-13-74-26W4 : Location
SRVC.                                                RPS Energy Canada Ltd. : Service Company
DATE.                                                                       : Completion Date
CTRY.                                                                Canada : Country
PROV.                                                               Alberta : Province       (required if CTRY = CA)
UWI .                                                 104/04-17-074-25W4/04 : Unique Well ID (required if CTRY = CA)
LIC .                                                                503697 : License        (required if CTRY = CA)
STAT.                                                                       : State          (required if CTRY = US)
CNTY.                                                                       : County         (required if CTRY = US)
API .                                                                       : API Number     (required if CTRY = US)
LATI.DEG                                                                  0 : Latitude  - see Surface Coords comment above
LONG.DEG                                                                  0 : Longitude - see Surface Coords comment above
GDAT.                                                                       : Geodetic Datum
EKB .m                                                                688.9 : K.B. Elevation
EGL .m                                                                684.6 : Ground Level Elevation
~Curve Information -----------------------------------------
DEPTH.m  001 : Depth channel
ROP  .min/m  : 
GAS  .units  : 
GAMMA.API    : 
~Params ----------------------------------------------------
~Other -----------------------------------------------------
~ASCII -----------------------------------------------------
# ...
 1326.40000    0.30000  173.00000   54.49000
 1326.60000    0.30000  168.00000   54.83000
 1326.80000    0.30000  163.00000   55.23000
 1327.00000    0.30000  160.00000   55.61000
 1327.20000    0.30000  156.00000   55.69000
 1327.40000    0.30000  152.00000   55.25000
 1327.60000    0.30000  147.00000   55.62000
 1327.80000    0.30000  146.00000   55.86000
 1328.00000    0.30000  144.00000   55.87000
 1328.20000    0.30000  143.00000   56.16000
 1328.40000    0.30000  144.00000   56.81000
 1328.60000    0.30000  146.00000   57.39000
 1328.80000    0.30000  148.00000   57.57000
 1329.00000    0.30000  151.00000   58.08000
 1329.20000    0.30000  152.00000   58.79000
 1329.40000    0.40000  157.00000   57.46000
 1329.60000    0.50000  164.00000   55.23000
 1329.80000    0.70000  169.00000   54.07000
 1330.00000    0.70000  171.00000   52.82000
 1330.20000    0.60000  173.00000   51.59000
 1330.40000    0.60000  175.00000   50.49000
 1330.60000    0.60000  176.00000   52.83000
 1330.80000    0.50000  180.00000   54.03000
 1331.00000    0.50000  184.00000   54.94000
 1331.20000    0.40000  189.00000   55.79000
 1331.40000    0.40000  196.00000   54.04000
 1331.60000    0.40000  206.00000   53.58000
 1331.80000    0.40000  213.00000   53.10000
 1332.00000    0.40000  225.00000   52.73000
 1332.20000    0.40000  236.00000   52.58000
 1332.40000    0.40000  253.00000   52.04000
 1332.60000    0.40000  273.00000   50.30000
 1332.80000    0.40000  296.00000   51.03000
 1333.00000    0.40000  316.00000   51.54000
 1333.20000    0.40000  330.00000   52.15000
 1333.40000    0.40000  354.00000   52.75000
 1333.60000    0.40000  369.00000   53.21000
 1333.80000    0.40000  378.00000   53.40000
 1334.00000    0.30000  382.00000   53.68000
 1334.20000    0.30000  383.00000   54.31000
 1334.40000    0.30000  382.00000   54.89000
 1334.60000    0.30000  380.00000   55.09000
 1334.80000    0.30000  381.00000   55.78000
 1335.00000    0.30000  381.00000   57.01000
 1335.20000    0.30000  381.00000   58.39000
 1335.40000    0.30000  380.00000   59.51000
 1335.60000    0.30000  382.00000   59.98000
 1335.80000    0.30000  384.00000   58.85000
 1336.00000    0.30000  388.00000   58.17000
 1336.20000    0.30000  638.00000   57.51000
 1336.40000  163.20000  650.00000   58.06000
 1336.60000   42.80000  653.00000   58.25000
 1336.80000   15.10000  655.00000   57.53000
 1337.00000    5.10000  657.00000   56.79000
 1337.20000    1.50000  658.00000   56.47000
 1337.40000    0.60000  661.00000   55.88000
 1337.60000    0.40000  663.00000   56.42000
 1337.80000    0.40000  665.00000   56.23000
 1338.00000    0.30000  665.00000   56.17000
 1338.20000    0.30000  665.00000   56.69000
 1338.40000    0.30000  665.00000   57.29000
 1338.60000    0.30000  664.00000   58.84000
 1338.80000    0.30000  663.00000   55.81000
 1339.00000    0.30000  660.00000   52.47000
 1339.20000    0.30000  659.00000   50.18000
 1339.40000    0.20000  657.00000   53.61000
 1339.60000    0.20000  656.00000   56.18000
 1339.80000    0.20000  654.00000   58.63000
 1340.00000    0.20000  652.00000   60.65000
 1340.20000    0.20000  648.00000   60.59000
 1340.40000    0.20000  647.00000   56.86000
 1340.60000    0.30000  649.00000   57.47000
 1340.80000    0.30000  652.00000   58.26000
 1341.00000    0.30000  664.00000   57.58000
 1341.20000    0.30000  676.00000   54.85000
 1341.40000    0.30000  700.00000   52.59000
 1341.60000    0.30000  731.00000   53.11000
 1341.80000    0.30000  757.00000   53.40000
 1342.00000    0.30000  787.00000   53.88000
 1342.20000    0.30000  828.00000   56.57000
 1342.40000    0.30000  858.00000   54.41000
 1342.60000    0.30000  897.00000   52.75000
 1342.80000    0.30000  932.00000   51.77000
 1343.00000    0.30000  961.00000   50.56000
 1343.20000    0.30000  973.00000   48.68000
 1343.40000    0.30000  994.00000   48.59000
 1343.60000    0.30000 1009.00000   49.02000
 1343.80000    0.30000 1014.00000   49.30000
 1344.00000    0.30000 1017.00000   51.79000
 1344.20000    0.30000 1016.00000   52.73000
 1344.40000    0.30000 1011.00000   53.58000
 1344.60000    0.30000  999.00000   54.84000
 1344.80000    0.30000  982.00000   56.12000
 1345.00000    0.30000  959.00000   58.07000
 1345.20000    0.30000  925.00000   56.34000
 1345.40000    0.30000  897.00000   55.08000
 1345.60000    0.30000  404.00000   53.87000
 1345.80000    0.30000  392.00000   53.94000
 1346.00000    0.40000  375.00000   57.42000
 1346.20000    0.40000  364.00000   57.98000
 1346.40000    0.40000  354.00000   56.70000
 1346.60000    0.30000  344.00000   54.93000
 1346.80000    0.30000  335.00000   54.02000
 1347.00000    0.30000  324.00000   53.18000
 1347.20000    0.30000  312.00000   55.01000
 1347.40000    0.20000  303.00000   57.51000
 1347.60000    0.20000  295.00000   55.18000
 1347.80000    0.30000  284.00000   52.86000
 1348.00000    0.30000  278.00000   50.98000
 1348.20000    0.30000  274.00000   51.45000
 1348.40000    0.30000  279.00000   51.58000
 1348.60000    0.30000  283.00000   50.46000
 1348.80000    0.30000  297.00000   49.96000
 1349.00000    0.40000  307.00000   52.31000
 1349.20000    0.40000  318.00000   53.12000
 1349.40000    0.40000  471.00000   52.64000
 1349.60000  111.30000  484.00000   56.12000
 1349.80000   29.50000  487.00000   55.42000
 1350.00000    9.30000  489.00000   53.40000
 1350.20000    2.30000  489.00000   55.70000
 1350.40000    0.70000  489.00000   55.89000
 1350.60000    0.50000  489.00000   55.11000
 1350.80000    0.40000  489.00000   54.31000
 1351.00000    0.30000  489.00000   54.23000
 1351.20000    0.30000  486.00000   55.17000
 1351.40000    0.30000  482.00000   56.40000
 1351.60000    0.30000  472.00000   55.64000
 1351.80000    0.30000  466.00000   55.12000
 1352.00000    0.30000  454.00000   54.56000
 1352.20000    0.40000  444.00000   52.58000
 1352.40000    0.40000  434.00000   54.65000
 1352.60000    0.40000  419.00000   56.64000
 1352.80000    0.40000  404.00000   54.26000
 1353.00000    0.40000  392.00000   55.34000
 1353.20000    0.30000  381.00000   56.62000
 1353.40000    0.30000  369.00000   57.45000
 1353.60000    0.30000  357.00000   57.51000
 1353.80000    0.30000  343.00000   57.26000
 1354.00000    0.30000  333.00000   56.76000
 1354.20000    0.30000  322.00000   54.69000
 1354.40000    0.30000  313.00000   54.04000
 1354.60000    0.30000  303.00000   53.75000
 1354.80000    0.40000  290.00000   53.49000
 1355.00000    0.40000  280.00000   53.02000
 1355.20000    0.60000  272.00000   51.96000
 1355.40000    0.70000  268.00000   49.61000
 1355.60000    0.70000  269.00000   48.53000
 1355.80000    0.70000  273.00000   49.42000
 1356.00000    0.70000  284.00000   50.11000
 1356.20000    0.70000  301.00000   51.37000
 1356.40000    0.70000  326.00000   51.20000
 1356.60000    0.60000  358.00000   49.40000
 1356.80000    0.60000  398.00000   46.84000
 1357.00000    0.50000  455.00000   47.04000
 1357.20000    0.50000  508.00000   47.25000
 1357.40000    0.50000  556.00000   47.46000
 1357.60000    0.50000  603.00000   47.65000
 1357.80000    0.50000  640.00000   47.05000
 1358.00000    0.50000  671.00000   47.46000
 1358.20000    0.50000  704.00000   48.04000
 1358.40000    0.50000  724.00000   48.63000
 1358.60000    0.50000  745.00000   48.97000
 1358.80000    0.50000  747.00000   49.77000
 1359.00000    0.60000  745.00000   45.20000
 1359.20000    0.60000  725.00000   46.11000
 1359.40000    0.50000  701.00000   49.82000
 1359.60000    0.50000  679.00000   47.99000
 1359.80000    0.40000  653.00000   45.89000
 1360.00000    0.40000  634.00000   55.87000
 1360.20000    0.30000  613.00000   51.26000
 1360.40000    0.30000  594.00000   51.84000
 1360.60000    0.30000  560.00000   50.59000
 1360.80000    0.30000  554.00000   47.37000
 1361.00000    0.30000  533.00000   45.43000
 1361.20000    0.30000  507.00000   43.64000
 1361.40000    0.30000  490.00000   48.61000
 1361.60000    0.30000  459.00000   48.55000
 1361.80000    0.30000  433.00000   44.37000
