~Version ---------------------------------------------------
VERS.   2.0 : CWLS log ASCII Standard -VERSION 2.0
WRAP.    NO : One Line per Depth Step
DLM . SPACE : Delimiter between data columns - one or more spaces
~Well ------------------------------------------------------
STRT.m                                                                  650 : First Depth
STOP.m                                                                 1981 : Last Depth
STEP.m                                                                  0.2 : Depth Increment
NULL.                                                               -999.25 : NULL Value
COMP.                                                   Spur Petroleum Ltd. : Well Operator
WELL. SPL 1-13 HZ 104 MartenH 4-17-74-25 Photo Log Leg #4 (2nd Leg f/North) : Well Name
FLD .                                                Marten Hills (Zone 12) : Field
LOC .                                                 Surface: 1-13-74-26W4 : Location
SRVC.                                                RPS Energy Canada Ltd. : Service Company
DATE.                                                                       : Completion Date
CTRY.                                                                Canada : Country
PROV.                                                               Alberta : Province       (required if CTRY = CA)
UWI .                                                 104/04-17-074-25W4/04 : Unique Well ID (required if CTRY = CA)
LIC .                                                                503697 : License        (required if CTRY = CA)
STAT.                                                                       : State          (required if CTRY = US)
CNTY.                                                                       : County         (required if CTRY = US)
API .                                                                       : API Number     (required if CTRY = US)
LATI.DEG                                                                  0 : Latitude  - see Surface Coords comment above
LONG.DEG                                                                  0 : Longitude - see Surface Coords comment above
GDAT.                                                                       : Geodetic Datum
EKB .m                                                                688.9 : K.B. Elevation
EGL .m                                                                684.6 : Ground Level Elevation
~Curve Information -----------------------------------------
DEPTH.m  001 : Depth channel
ROP  .min/m  : 
GAS  .units  : 
GAMMA.API    : 
~Params ----------------------------------------------------
~Other -----------------------------------------------------
~ASCII -----------------------------------------------------
# ...
  899.20000    0.30000  246.00000   62.83000
  899.40000    0.30000  251.00000   62.44000
  899.60000    0.30000  253.00000   64.43000
  899.80000    0.30000  258.00000   66.96000
  900.00000    0.30000  261.00000   66.40000
  900.20000    0.30000  266.00000   63.14000
  900.40000    0.30000  269.00000   62.89000
  900.60000    0.30000  271.00000   64.09000
  900.80000    0.30000  272.00000   65.11000
  901.00000    0.30000  272.00000   65.70000
  901.20000    0.30000  272.00000   65.18000
  901.40000    0.30000  272.00000   64.87000
  901.60000    0.30000  271.00000   63.89000
  901.80000    0.30000  269.00000   62.68000
  902.00000    0.30000  268.00000   62.11000
  902.20000    0.30000  265.00000   60.44000
  902.40000    0.30000  262.00000   60.12000
  902.60000    0.30000  257.00000   61.26000
  902.80000    0.30000  251.00000   62.66000
  903.00000    0.30000  246.00000   63.27000
  903.20000    0.30000  220.00000   64.32000
  903.40000  194.40000  237.00000   65.62000
  903.60000   48.20000  259.00000   65.78000
  903.80000   13.20000  286.00000   65.97000
  904.00000    3.00000  311.00000   66.22000
  904.20000    0.80000  331.00000   66.45000
  904.40000    0.60000  346.00000   66.55000
  904.60000    0.60000  367.00000   66.13000
  904.80000    0.70000  375.00000   65.04000
  905.00000    0.80000  380.00000   63.76000
  905.20000    0.70000  384.00000   62.75000
  905.40000    0.60000  391.00000   62.45000
  905.60000    0.60000  407.00000   62.65000
  905.80000    0.60000  430.00000   63.07000
  906.00000    0.70000  455.00000   63.63000
  906.20000    0.70000  589.00000   64.26000
  906.40000    2.80000  434.00000   64.86000
  906.60000    1.50000  409.00000   65.36000
  906.80000    0.80000  393.00000   65.67000
  907.00000    0.60000  381.00000   65.73000
  907.20000    0.50000  375.00000   65.66000
  907.40000    0.40000  362.00000   64.72000
  907.60000    0.30000  355.00000   63.38000
  907.80000    0.30000  346.00000   62.49000
  908.00000    0.30000  338.00000   62.45000
  908.20000    0.30000    0.00000   62.75000
  908.40000    0.30000    0.00000   63.36000
  908.60000    0.30000  334.00000   64.14000
  908.80000    0.30000  330.00000   64.93000
  909.00000    0.30000  325.00000   65.60000
  909.20000    0.30000  321.00000   67.38000
  909.40000    0.30000  317.00000   68.13000
  909.60000    0.30000  312.00000   69.01000
  909.80000    0.30000  308.00000   69.82000
  910.00000    0.30000  302.00000   64.88000
  910.20000    0.30000  299.00000   64.24000
  910.40000    0.30000  296.00000   63.48000
  910.60000    0.30000  292.00000   62.72000
  910.80000    0.30000  291.00000   62.08000
  911.00000    0.30000  289.00000   61.69000
  911.20000    0.30000  288.00000   61.84000
  911.40000    0.30000  288.00000   63.27000
  911.60000    0.30000  290.00000   64.11000
  911.80000    0.30000  293.00000   66.02000
  912.00000    0.30000  295.00000   66.72000
  912.20000    0.30000  302.00000   67.61000
  912.40000    0.30000  307.00000   66.24000
  912.60000    0.30000  311.00000   58.81000
  912.80000    0.30000  318.00000   63.16000
  913.00000    0.30000  324.00000   62.80000
  913.20000    0.30000  328.00000   62.51000
  913.40000    0.30000  336.00000   62.38000
  913.60000    0.30000  348.00000   61.87000
  913.80000    0.30000  356.00000   61.64000
  914.00000    0.30000  363.00000   62.05000
  914.20000    0.30000  371.00000   62.72000
  914.40000    0.30000  378.00000   63.21000
  914.60000    0.30000  385.00000   63.26000
  914.80000    0.30000  395.00000   63.26000
  915.00000    0.30000  399.00000   63.31000
  915.20000    0.30000  403.00000   64.02000
  915.40000    0.30000  406.00000   64.81000
  915.60000    0.30000  407.00000   64.91000
  915.80000    0.30000  407.00000   64.91000
  916.00000    0.30000  406.00000   64.91000
  916.20000    0.30000  403.00000   64.91000
  916.40000  114.10000  242.00000   64.91000
  916.60000   24.80000  240.00000   64.91000
  916.80000    1.30000  246.00000   64.52000
  917.00000    1.00000  252.00000   63.60000
  917.20000    1.00000  268.00000   63.30000
  917.40000    0.90000  288.00000   64.07000
  917.60000    0.90000  307.00000   65.16000
  917.80000    0.80000  327.00000   65.73000
  918.00000    0.70000  342.00000   65.98000
  918.20000    0.60000  359.00000   66.57000
  918.40000    0.60000  382.00000   67.14000
  918.60000    0.60000  387.00000   67.37000
  918.80000    0.60000  389.00000   67.29000
  919.00000    0.70000  388.00000   67.08000
  919.20000    0.60000  388.00000   66.80000
  919.40000    0.60000  388.00000   66.48000
  919.60000    0.60000  397.00000   66.18000
  919.80000    0.60000  427.00000   65.92000
  920.00000    0.60000  451.00000   65.76000
  920.20000    4.00000  502.00000   65.99000
  920.40000    1.90000  509.00000   67.37000
  920.60000    1.10000  517.00000   67.96000
  920.80000    0.70000  522.00000   68.85000
  921.00000    0.50000  528.00000   69.78000
  921.20000    0.40000  533.00000   71.46000
  921.40000    0.30000  539.00000   70.46000
  921.60000    0.30000  541.00000   68.49000
  921.80000    0.30000  544.00000   66.28000
  922.00000    0.30000  546.00000   64.58000
  922.20000    0.30000  548.00000   64.09000
  922.40000    0.30000  549.00000   64.09000
  922.60000    0.30000  549.00000   64.23000
  922.80000    0.30000  549.00000   66.43000
  923.00000    0.30000  392.00000   67.65000
  923.20000    0.30000  386.00000   68.17000
  923.40000    0.30000  380.00000   67.97000
  923.60000    0.30000  373.00000   67.74000
  923.80000    0.30000  365.00000   67.51000
  924.00000    0.30000  356.00000   68.14000
  924.20000    0.30000  352.00000   67.47000
  924.40000    0.30000  346.00000   66.97000
  924.60000    0.30000  340.00000   68.11000
  924.80000    0.30000  336.00000   68.95000
  925.00000    0.30000  334.00000   69.03000
  925.20000    0.30000  334.00000   69.83000
  925.40000    0.30000  336.00000   62.44000
  925.60000    0.30000  339.00000   66.97000
  925.80000    0.30000  341.00000   66.29000
  926.00000    0.30000  342.00000   64.53000
  926.20000    0.30000  343.00000   63.01000
  926.40000    0.30000  343.00000   62.44000
  926.60000    0.30000  343.00000   62.44000
  926.80000    0.30000  344.00000   62.44000
  927.00000    0.30000  345.00000   62.45000
  927.20000    0.30000  348.00000   62.96000
  927.40000    0.30000  351.00000   63.86000
  927.60000    0.30000  355.00000   64.67000
  927.80000    0.30000  356.00000   65.00000
  928.00000    0.30000  359.00000   66.76000
  928.20000    0.30000  359.00000   69.07000
  928.40000    0.30000  359.00000   69.86000
  928.60000    0.30000  358.00000   70.27000
  928.80000    0.30000  356.00000   70.92000
  929.00000    0.30000  351.00000   71.41000
  929.20000    0.30000  346.00000   70.63000
  929.40000    0.30000  228.00000   66.59000
  929.60000  118.70000  281.00000   63.38000
  929.80000   45.50000  325.00000   63.90000
  930.00000   15.60000  355.00000   65.80000
  930.20000    2.50000  378.00000   67.65000
  930.40000    0.80000  399.00000   68.17000
  930.60000    0.60000  413.00000   67.69000
  930.80000    0.60000  422.00000   66.99000
  931.00000    0.60000  430.00000   66.56000
  931.20000    0.60000  433.00000   66.48000
  931.40000    0.60000  441.00000   66.22000
  931.60000    0.50000  449.00000   65.87000
  931.80000    0.50000  459.00000   65.49000
  932.00000    0.50000  465.00000   65.15000
  932.20000    0.50000  468.00000   64.94000
  932.40000    0.50000  468.00000   64.75000
  932.60000    0.50000  466.00000   64.11000
  932.80000    0.50000  462.00000   63.98000
  933.00000    0.50000  459.00000   63.67000
  933.20000    0.50000  459.00000   63.34000
  933.40000    0.50000  461.00000   64.85000
  933.60000    0.50000  466.00000   65.48000
  933.80000    0.50000  471.00000   66.20000
  934.00000    0.50000  479.00000   66.99000
  934.20000    0.50000  639.00000   67.77000
  934.40000    5.10000  560.00000   68.48000
  934.60000    2.00000  478.00000   68.97000
