~Version ---------------------------------------------------
VERS.   2.0 : CWLS log ASCII Standard -VERSION 2.0
WRAP.    NO : One Line per Depth Step
DLM . SPACE : Delimiter between data columns - one or more spaces
~Well ------------------------------------------------------
STRT.m                                                                  650 : First Depth
STOP.m                                                                 1981 : Last Depth
STEP.m                                                                  0.2 : Depth Increment
NULL.                                                               -999.25 : NULL Value
COMP.                                                   Spur Petroleum Ltd. : Well Operator
WELL. SPL 1-13 HZ 104 MartenH 4-17-74-25 Photo Log Leg #4 (2nd Leg f/North) : Well Name
FLD .                                                Marten Hills (Zone 12) : Field
LOC .                                                 Surface: 1-13-74-26W4 : Location
SRVC.                                                RPS Energy Canada Ltd. : Service Company
DATE.                                                                       : Completion Date
CTRY.                                                                Canada : Country
PROV.                                                               Alberta : Province       (required if CTRY = CA)
UWI .                                                 104/04-17-074-25W4/04 : Unique Well ID (required if CTRY = CA)
LIC .                                                                503697 : License        (required if CTRY = CA)
STAT.                                                                       : State          (required if CTRY = US)
CNTY.                                                                       : County         (required if CTRY = US)
API .                                                                       : API Number     (required if CTRY = US)
LATI.DEG                                                                  0 : Latitude  - see Surface Coords comment above
LONG.DEG                                                                  0 : Longitude - see Surface Coords comment above
GDAT.                                                                       : Geodetic Datum
EKB .m                                                                688.9 : K.B. Elevation
EGL .m                                                                684.6 : Ground Level Elevation
~Curve Information -----------------------------------------
DEPTH.m  001 : Depth channel
ROP  .min/m  : 
GAS  .units  : 
GAMMA.API    : 
~Params ----------------------------------------------------
~Other -----------------------------------------------------
~ASCII -----------------------------------------------------
# ...
  828.00000    8.80000   99.00000   65.46000
  828.20000    6.70000   98.00000   64.33000
  828.40000    6.60000   95.00000   63.32000
  828.60000    5.90000   94.00000   62.48000
  828.80000    5.90000   93.00000   60.97000
  829.00000    4.80000   91.00000   61.73000
  829.20000    3.80000   90.00000   62.43000
  829.40000    3.60000   87.00000   61.77000
  829.60000    3.60000   88.00000   62.05000
  829.80000    3.20000   86.00000   62.32000
  830.00000    2.20000   86.00000   63.62000
  830.20000    2.40000   86.00000   64.09000
  830.40000    2.10000   85.00000   64.09000
  830.60000    1.90000   85.00000   65.74000
  830.80000    1.80000   86.00000   65.95000
  831.00000    1.60000   85.00000   66.16000
  831.20000    2.20000   87.00000   66.37000
  831.40000    1.10000   85.00000   66.13000
  831.60000    0.80000   86.00000   61.62000
  831.80000    0.80000   89.00000   61.62000
  832.00000    0.80000   90.00000   62.27000
  832.20000    0.80000   91.00000   63.42000
  832.40000    0.80000   92.00000   65.00000
  832.60000    0.80000   94.00000   66.32000
  832.80000    0.80000   96.00000   67.34000
  833.00000    0.80000   95.00000   64.73000
  833.20000    0.80000   95.00000   61.16000
  833.40000    0.80000   97.00000   59.42000
  833.60000    0.80000   97.00000   60.59000
  833.80000    0.80000   99.00000   61.91000
  834.00000    0.80000  101.00000   63.10000
  834.20000    0.80000  102.00000   66.16000
  834.40000    0.80000  103.00000   63.20000
  834.60000    0.80000  103.00000   61.19000
  834.80000    0.80000  102.00000   62.44000
  835.00000    0.80000  103.00000   62.45000
  835.20000    0.80000  103.00000   62.51000
  835.40000    0.80000  102.00000   62.61000
  835.60000    0.80000  102.00000   62.73000
  835.80000    0.80000  104.00000   62.87000
  836.00000    0.80000  104.00000   63.01000
  836.20000    0.80000  109.00000   63.14000
  836.40000    0.80000  104.00000   63.25000
  836.60000    0.80000  103.00000   64.15000
  836.80000    0.80000  105.00000   64.50000
  837.00000    0.80000  106.00000   64.82000
  837.20000    0.80000  108.00000   64.98000
  837.40000    0.80000  112.00000   65.67000
  837.60000    0.80000  112.00000   65.73000
  837.80000    0.80000  113.00000   65.73000
  838.00000    0.80000  113.00000   65.73000
  838.20000    0.80000  113.00000   65.73000
  838.40000    0.80000  102.00000   64.86000
  838.60000  104.20000  117.00000   64.05000
  838.80000   32.30000  134.00000   63.08000
  839.00000    6.70000  170.00000   62.48000
  839.20000    1.40000  199.00000   62.94000
  839.40000    0.70000  230.00000   63.31000
  839.60000    0.80000    0.00000   63.64000
  839.80000    0.90000    0.00000   64.14000
  840.00000    0.90000    0.00000   64.62000
  840.20000    0.80000    0.00000   64.89000
  840.40000    3.00000  380.00000   65.16000
  840.60000    1.40000  333.00000   65.69000
  840.80000    0.80000  320.00000   65.35000
  841.00000    0.60000  314.00000   64.18000
  841.20000    0.50000  304.00000   63.36000
  841.40000    0.40000  293.00000   65.57000
  841.60000    0.40000  281.00000   66.98000
  841.80000    0.40000  275.00000   69.07000
  842.00000    0.40000  270.00000   70.89000
  842.20000    0.40000  267.00000   71.46000
  842.40000    0.40000  267.00000   70.97000
  842.60000    0.40000  268.00000   70.61000
  842.80000    0.40000  272.00000   68.37000
  843.00000    0.40000  274.00000   65.87000
  843.20000    0.40000  279.00000   65.27000
  843.40000    0.40000  286.00000   64.80000
  843.60000    0.40000  291.00000   63.57000
  843.80000    0.40000  298.00000   61.88000
  844.00000    0.40000  306.00000   60.83000
  844.20000    0.40000  313.00000   60.80000
  844.40000    0.40000  322.00000   60.80000
  844.60000    0.40000  333.00000   63.15000
  844.80000    0.40000  342.00000   68.29000
  845.00000    0.40000  348.00000   69.02000
  845.20000    0.40000  354.00000   69.02000
  845.40000    0.40000  359.00000   68.65000
  845.60000    0.40000  363.00000   67.76000
  845.80000    0.40000  372.00000   66.88000
  846.00000    0.40000  381.00000   66.55000
  846.20000    0.40000  387.00000   66.55000
  846.40000    0.40000  394.00000   66.55000
  846.60000    0.40000  401.00000   66.40000
  846.80000    0.40000  409.00000   65.92000
  847.00000    0.40000  415.00000   65.75000
  847.20000    0.40000  424.00000   66.09000
  847.40000    0.40000  434.00000   66.54000
  847.60000    0.40000  444.00000   61.12000
  847.80000    0.40000  455.00000   64.11000
  848.00000    0.40000  460.00000   64.09000
  848.20000    0.40000  466.00000   64.09000
  848.40000    0.40000  470.00000   64.09000
  848.60000    0.40000  476.00000   64.89000
  848.80000    0.40000  479.00000   66.46000
  849.00000    0.40000  484.00000   67.37000
  849.20000    0.40000  490.00000   66.51000
  849.40000    0.40000  496.00000   64.66000
  849.60000    0.40000  500.00000   63.34000
  849.80000    0.40000  504.00000   63.94000
  850.00000    0.40000  505.00000   65.78000
  850.20000    0.40000  505.00000   66.56000
  850.40000    0.40000  505.00000   66.74000
  850.60000    0.40000  504.00000   67.05000
  850.80000    0.40000  504.00000   67.31000
  851.00000    0.40000  504.00000   67.44000
  851.20000    0.40000  504.00000   68.25000
  851.40000    0.40000  377.00000   69.69000
  851.60000  322.30000  401.00000   71.45000
  851.80000  113.20000  414.00000   73.21000
  852.00000   58.80000  423.00000   74.67000
  852.20000   32.80000  433.00000   75.50000
  852.40000   20.20000  438.00000   75.11000
  852.60000   12.50000  441.00000   73.95000
  852.80000    7.10000  446.00000   72.39000
  853.00000    3.80000  451.00000   70.06000
  853.20000    1.60000  457.00000   69.32000
  853.40000    0.50000  462.00000   67.81000
  853.60000    0.40000  465.00000   67.43000
  853.80000    0.30000  468.00000   68.02000
  854.00000    0.30000  473.00000   68.98000
  854.20000    0.30000  476.00000   69.95000
  854.40000    0.30000  549.00000   70.58000
  854.60000    0.30000  461.00000   70.66000
  854.80000    0.30000  455.00000   70.66000
  855.00000    0.30000  446.00000   69.64000
  855.20000    0.30000  441.00000   67.54000
  855.40000    0.30000  432.00000   65.82000
  855.60000    0.30000  424.00000   64.09000
  855.80000    0.30000  415.00000   64.56000
  856.00000    0.30000  407.00000   65.13000
  856.20000    0.30000  400.00000   65.59000
  856.40000    0.30000  396.00000   65.77000
  856.60000    0.30000  387.00000   66.47000
  856.80000    0.30000  379.00000   67.35000
  857.00000    0.30000  376.00000   70.16000
  857.20000    0.30000  374.00000   72.73000
  857.40000    0.30000  374.00000   73.70000
  857.60000    0.30000  378.00000   74.04000
  857.80000    0.30000  383.00000   74.23000
  858.00000    0.30000  389.00000   74.45000
  858.20000    0.30000  393.00000   74.64000
  858.40000    0.30000    0.00000   74.75000
  858.60000    0.30000    0.00000   73.94000
  858.80000    0.30000    0.00000   72.25000
  859.00000    0.30000    0.00000   70.79000
  859.20000    0.30000    0.00000   68.30000
  859.40000    0.30000  395.00000   66.01000
  859.60000    0.30000  404.00000   69.24000
  859.80000    0.30000  412.00000   69.99000
  860.00000    0.30000  419.00000   70.78000
  860.20000    0.30000  425.00000   71.59000
  860.40000    0.30000  434.00000   59.98000
  860.60000    0.30000  444.00000   67.11000
  860.80000    0.30000  451.00000   65.75000
  861.00000    0.30000  459.00000   65.44000
  861.20000    0.30000  464.00000   64.95000
  861.40000    0.30000  470.00000   64.80000
  861.60000    0.30000  478.00000   64.42000
  861.80000    0.30000  482.00000   64.11000
  862.00000    0.30000  486.00000   66.53000
  862.20000    0.30000  490.00000   72.84000
  862.40000    0.30000  491.00000   73.08000
  862.60000    0.30000  492.00000   68.76000
  862.80000    0.30000  491.00000   64.67000
  863.00000    0.30000  489.00000   64.09000
  863.20000    0.30000  488.00000   64.09000
  863.40000    0.20000  485.00000   63.91000
