~Version ---------------------------------------------------
VERS.   2.0 : CWLS log ASCII Standard -VERSION 2.0
WRAP.    NO : One Line per Depth Step
DLM . SPACE : Delimiter between data columns - one or more spaces
~Well ------------------------------------------------------
STRT.m                                                                  650 : First Depth
STOP.m                                                                 1981 : Last Depth
STEP.m                                                                  0.2 : Depth Increment
NULL.                                                               -999.25 : NULL Value
COMP.                                                   Spur Petroleum Ltd. : Well Operator
WELL. SPL 1-13 HZ 104 MartenH 4-17-74-25 Photo Log Leg #4 (2nd Leg f/North) : Well Name
FLD .                                                Marten Hills (Zone 12) : Field
LOC .                                                 Surface: 1-13-74-26W4 : Location
SRVC.                                                RPS Energy Canada Ltd. : Service Company
DATE.                                                                       : Completion Date
CTRY.                                                                Canada : Country
PROV.                                                               Alberta : Province       (required if CTRY = CA)
UWI .                                                 104/04-17-074-25W4/04 : Unique Well ID (required if CTRY = CA)
LIC .                                                                503697 : License        (required if CTRY = CA)
STAT.                                                                       : State          (required if CTRY = US)
CNTY.                                                                       : County         (required if CTRY = US)
API .                                                                       : API Number     (required if CTRY = US)
LATI.DEG                                                                  0 : Latitude  - see Surface Coords comment above
LONG.DEG                                                                  0 : Longitude - see Surface Coords comment above
GDAT.                                                                       : Geodetic Datum
EKB .m                                                                688.9 : K.B. Elevation
EGL .m                                                                684.6 : Ground Level Elevation
~Curve Information -----------------------------------------
DEPTH.m  001 : Depth channel
ROP  .min/m  : 
GAS  .units  : 
GAMMA.API    : 
~Params ----------------------------------------------------
~Other -----------------------------------------------------
~ASCII -----------------------------------------------------
# ...
 1148.40000    0.30000  440.00000   62.44000
 1148.60000    0.30000  429.00000   64.99000
 1148.80000    0.30000  419.00000   64.08000
 1149.00000    0.30000  406.00000   63.47000
 1149.20000    0.30000  396.00000   62.40000
 1149.40000    0.30000  153.00000   61.66000
 1149.60000    0.30000  150.00000   61.24000
 1149.80000    0.30000  149.00000   60.26000
 1150.00000    0.30000  146.00000   60.00000
 1150.20000    0.30000  144.00000   60.25000
 1150.40000    0.30000  140.00000   60.69000
 1150.60000    0.30000  137.00000   61.23000
 1150.80000    0.30000  135.00000   61.77000
 1151.00000    0.30000  132.00000   62.20000
 1151.20000    0.30000  129.00000   62.43000
 1151.40000    0.30000  126.00000   62.44000
 1151.60000    0.30000  124.00000   62.44000
 1151.80000    0.30000  122.00000   62.44000
 1152.00000    0.30000  161.00000   62.64000
 1152.20000   99.50000  169.00000   63.01000
 1152.40000   33.70000  178.00000   63.26000
 1152.60000   15.40000  188.00000   62.68000
 1152.80000    7.30000  197.00000   61.66000
 1153.00000    3.20000  204.00000   61.81000
 1153.20000    1.00000  213.00000   62.48000
 1153.40000    0.50000  223.00000   63.48000
 1153.60000    0.40000  239.00000   64.67000
 1153.80000    0.30000  251.00000   65.88000
 1154.00000    0.30000  259.00000   66.98000
 1154.20000    0.30000  266.00000   67.80000
 1154.40000    0.30000  273.00000   68.18000
 1154.60000    0.30000  279.00000   68.19000
 1154.80000    0.30000  286.00000   68.06000
 1155.00000    0.30000  293.00000   67.30000
 1155.20000    0.30000  298.00000   66.35000
 1155.40000    0.30000  303.00000   65.76000
 1155.60000    0.30000  307.00000   65.45000
 1155.80000    0.30000  315.00000   64.92000
 1156.00000    0.30000  322.00000   64.85000
 1156.20000    0.30000  332.00000   64.67000
 1156.40000    0.30000  349.00000   64.43000
 1156.60000    0.30000  363.00000   64.22000
 1156.80000    0.30000  386.00000   64.09000
 1157.00000    0.30000  406.00000   64.28000
 1157.20000    0.30000  426.00000   64.81000
 1157.40000    0.30000  445.00000   64.86000
 1157.60000    0.30000  477.00000   64.58000
 1157.80000    0.30000  495.00000   64.22000
 1158.00000    0.30000  511.00000   62.69000
 1158.20000    0.30000  527.00000   60.58000
 1158.40000    0.30000  543.00000   59.73000
 1158.60000    0.30000  564.00000   58.85000
 1158.80000    0.30000  585.00000   58.36000
 1159.00000    0.30000  595.00000   59.59000
 1159.20000    0.30000  614.00000   61.61000
 1159.40000    0.30000  626.00000   61.62000
 1159.60000    0.30000  636.00000   61.62000
 1159.80000    0.30000  645.00000   62.28000
 1160.00000    0.30000  653.00000   62.25000
 1160.20000    0.30000  658.00000   61.90000
 1160.40000    0.30000  661.00000   61.50000
 1160.60000    0.30000  664.00000   61.10000
 1160.80000    0.30000  666.00000   60.26000
 1161.00000    0.30000  666.00000   58.96000
 1161.20000    0.30000  663.00000   58.66000
 1161.40000    0.30000  658.00000   58.39000
 1161.60000    0.30000  643.00000   59.40000
 1161.80000    0.30000  631.00000   62.82000
 1162.00000    0.30000  617.00000   63.24000
 1162.20000    0.30000  603.00000   60.81000
 1162.40000    0.30000  579.00000   59.27000
 1162.60000    0.30000  569.00000   64.08000
 1162.80000    0.30000  546.00000   69.46000
 1163.00000    0.30000  531.00000   69.33000
 1163.20000    0.30000  517.00000   67.57000
 1163.40000    0.30000  501.00000   65.68000
 1163.60000    0.30000  485.00000   64.91000
 1163.80000    0.30000  470.00000   64.71000
 1164.00000    0.30000  451.00000   64.25000
 1164.20000    0.30000  435.00000   63.58000
 1164.40000    0.30000  424.00000   62.79000
 1164.60000    0.30000  415.00000   61.95000
 1164.80000    0.30000  408.00000   61.13000
 1165.00000    0.30000  402.00000   60.42000
 1165.20000    0.30000  220.00000   59.67000
 1165.40000  116.80000  203.00000   60.40000
 1165.60000   43.50000  203.00000   63.05000
 1165.80000   16.50000  204.00000   65.28000
 1166.00000    4.10000  205.00000   66.45000
 1166.20000    1.50000  207.00000   69.01000
 1166.40000    0.60000  211.00000   68.62000
 1166.60000    0.50000  213.00000   67.68000
 1166.80000    0.50000  213.00000   66.46000
 1167.00000    0.50000  214.00000   65.22000
 1167.20000    0.50000  214.00000   64.20000
 1167.40000    0.50000  215.00000   67.05000
 1167.60000    0.50000  215.00000   67.61000
 1167.80000    0.50000  215.00000   67.95000
 1168.00000    0.50000  216.00000   68.17000
 1168.20000    0.50000  221.00000   68.19000
 1168.40000    0.50000  223.00000   68.19000
 1168.60000    0.50000  240.00000   67.66000
 1168.80000    0.50000  268.00000   66.45000
 1169.00000    0.50000  280.00000   65.01000
 1169.20000    6.70000  529.00000   63.80000
 1169.40000    2.30000  689.00000   63.26000
 1169.60000    1.30000  690.00000   62.66000
 1169.80000    0.80000  690.00000   61.31000
 1170.00000    0.60000  691.00000   60.17000
 1170.20000    0.40000  691.00000   60.31000
 1170.40000    0.40000  690.00000   61.93000
 1170.60000    0.30000  689.00000   62.28000
 1170.80000    0.30000  687.00000   60.82000
 1171.00000    0.30000  686.00000   59.34000
 1171.20000    0.30000  684.00000   59.16000
 1171.40000    0.30000  683.00000   59.18000
 1171.60000    0.20000  681.00000   59.65000
 1171.80000    0.20000  679.00000   60.54000
 1172.00000    0.20000  678.00000   61.65000
 1172.20000    0.20000  678.00000   62.78000
 1172.40000    0.20000  677.00000   63.73000
 1172.60000    0.20000  677.00000   63.32000
 1172.80000    0.20000  676.00000   62.77000
 1173.00000    0.20000  676.00000   62.11000
 1173.20000    0.20000  675.00000   61.66000
 1173.40000    0.20000  675.00000   61.24000
 1173.60000    0.20000  673.00000   60.80000
 1173.80000    0.20000  670.00000   60.80000
 1174.00000    0.20000  667.00000   60.80000
 1174.20000    0.20000  664.00000   60.80000
 1174.40000    0.20000  661.00000   60.80000
 1174.60000    0.20000  658.00000   59.90000
 1174.80000    0.20000  655.00000   55.87000
 1175.00000    0.20000  652.00000   58.87000
 1175.20000    0.20000  646.00000   60.77000
 1175.40000    0.20000  640.00000   60.21000
 1175.60000    0.30000  633.00000   59.18000
 1175.80000    0.30000  627.00000   58.02000
 1176.00000    0.30000  619.00000   57.08000
 1176.20000    0.30000  613.00000   56.69000
 1176.40000    0.30000  602.00000   56.52000
 1176.60000    0.30000  595.00000   56.12000
 1176.80000    0.30000  586.00000   55.63000
 1177.00000    0.30000  573.00000   55.22000
 1177.20000    0.30000  563.00000   55.05000
 1177.40000    0.30000  547.00000   55.47000
 1177.60000    0.30000  536.00000   56.65000
 1177.80000    0.30000  515.00000   58.38000
 1178.00000    0.30000  498.00000   60.45000
 1178.20000    0.30000  479.00000   62.66000
 1178.40000    0.30000  466.00000   64.82000
 1178.60000  246.50000   95.00000   66.72000
 1178.80000   54.40000   99.00000   68.16000
 1179.00000   13.30000  101.00000   68.94000
 1179.20000    2.00000  104.00000   68.59000
 1179.40000    0.70000  147.00000   67.40000
 1179.60000    2.60000  158.00000   66.35000
 1179.80000    1.40000  165.00000   63.75000
 1180.00000    0.80000  173.00000   61.76000
 1180.20000    0.60000  176.00000   61.46000
 1180.40000    0.50000  180.00000   60.98000
 1180.60000    0.40000  185.00000   60.82000
 1180.80000    0.30000  186.00000   61.19000
 1181.00000    0.30000  190.00000   61.80000
 1181.20000    0.30000  193.00000   62.31000
 1181.40000    0.30000  200.00000   62.34000
 1181.60000    0.30000  206.00000   61.64000
 1181.80000    0.30000  216.00000   64.08000
 1182.00000    0.30000  227.00000   59.53000
 1182.20000    0.30000  239.00000   60.14000
 1182.40000    0.30000  255.00000   60.76000
 1182.60000    0.30000  287.00000   61.38000
 1182.80000    0.30000  310.00000   61.96000
 1183.00000    0.30000  327.00000   62.24000
 1183.20000    0.30000  354.00000   59.63000
 1183.40000    0.30000  392.00000   58.63000
 1183.60000    0.30000  419.00000   57.76000
 1183.80000    0.30000  459.00000   57.51000
