~Version ---------------------------------------------------
VERS.   2.0 : CWLS log ASCII Standard -VERSION 2.0
WRAP.    NO : One Line per Depth Step
DLM . SPACE : Delimiter between data columns - one or more spaces
~Well ------------------------------------------------------
STRT.m                                                                  650 : First Depth
STOP.m                                                                 1981 : Last Depth
STEP.m                                                                  0.2 : Depth Increment
NULL.                                                               -999.25 : NULL Value
COMP.                                                   Spur Petroleum Ltd. : Well Operator
WELL. SPL 1-13 HZ 104 MartenH 4-17-74-25 Photo Log Leg #4 (2nd Leg f/North) : Well Name
FLD .                                                Marten Hills (Zone 12) : Field
LOC .                                                 Surface: 1-13-74-26W4 : Location
SRVC.                                                RPS Energy Canada Ltd. : Service Company
DATE.                                                                       : Completion Date
CTRY.                                                                Canada : Country
PROV.                                                               Alberta : Province       (required if CTRY = CA)
UWI .                                                 104/04-17-074-25W4/04 : Unique Well ID (required if CTRY = CA)
LIC .                                                                503697 : License        (required if CTRY = CA)
STAT.                                                                       : State          (required if CTRY = US)
CNTY.                                                                       : County         (required if CTRY = US)
API .                                                                       : API Number     (required if CTRY = US)
LATI.DEG                                                                  0 : Latitude  - see Surface Coords comment above
LONG.DEG                                                                  0 : Longitude - see Surface Coords comment above
GDAT.                                                                       : Geodetic Datum
EKB .m                                                                688.9 : K.B. Elevation
EGL .m                                                                684.6 : Ground Level Elevation
~Curve Information -----------------------------------------
DEPTH.m  001 : Depth channel
ROP  .min/m  : 
GAS  .units  : 
GAMMA.API    : 
~Params ----------------------------------------------------
~Other -----------------------------------------------------
~ASCII -----------------------------------------------------
# ...
 1753.60000    0.30000  761.00000   62.91000
 1753.80000    0.30000  772.00000   63.26000
 1754.00000    0.30000  774.00000   63.89000
 1754.20000    0.30000  776.00000   62.44000
 1754.40000    0.30000  776.00000   65.10000
 1754.60000    0.30000  775.00000   66.80000
 1754.80000    0.30000  772.00000   68.03000
 1755.00000    0.30000  769.00000   68.17000
 1755.20000    0.30000  764.00000   68.02000
 1755.40000    0.30000  762.00000   67.78000
 1755.60000    0.30000  759.00000   67.48000
 1755.80000    0.30000  757.00000   67.16000
 1756.00000    0.30000  759.00000   66.87000
 1756.20000    0.30000  759.00000   66.66000
 1756.40000    0.30000  758.00000   66.55000
 1756.60000    0.30000  631.00000   66.32000
 1756.80000    0.30000  628.00000   65.55000
 1757.00000    0.30000  626.00000   64.56000
 1757.20000    0.30000  624.00000   63.68000
 1757.40000    0.30000  623.00000   63.27000
 1757.60000    0.30000  621.00000   63.35000
 1757.80000   95.50000  578.00000   63.62000
 1758.00000    8.30000  578.00000   63.99000
 1758.20000    3.00000  578.00000   64.38000
 1758.40000    1.20000  578.00000   64.70000
 1758.60000    0.80000  577.00000   64.89000
 1758.80000    0.50000  575.00000   64.91000
 1759.00000    0.40000  572.00000   64.91000
 1759.20000    7.30000  570.00000   65.61000
 1759.40000    1.90000  210.00000   69.22000
 1759.60000    1.00000  213.00000   69.99000
 1759.80000    0.80000  219.00000   70.53000
 1760.00000    0.80000  227.00000   70.51000
 1760.20000    0.90000  238.00000   69.48000
 1760.40000    1.00000  253.00000   68.16000
 1760.60000    3.30000  299.00000   67.39000
 1760.80000    1.60000  305.00000   67.37000
 1761.00000    0.90000  308.00000   67.37000
 1761.20000    0.60000  311.00000   66.84000
 1761.40000    0.50000  317.00000   66.55000
 1761.60000    0.40000  322.00000   66.55000
 1761.80000    0.40000  325.00000   66.60000
 1762.00000    0.30000  329.00000   67.13000
 1762.20000    0.30000  334.00000   67.82000
 1762.40000    0.30000  338.00000   68.19000
 1762.60000    0.30000  342.00000   69.15000
 1762.80000    0.30000  347.00000   69.74000
 1763.00000    0.30000  353.00000   68.25000
 1763.20000    0.20000  457.00000   67.37000
 1763.40000    0.20000  457.00000   67.37000
 1763.60000    0.20000  456.00000   67.35000
 1763.80000    0.20000  456.00000   67.07000
 1764.00000    0.20000  457.00000   66.71000
 1764.20000    0.20000  457.00000   66.53000
 1764.40000    0.20000  457.00000   64.59000
 1764.60000    0.20000  456.00000   64.09000
 1764.80000    0.20000  455.00000   64.09000
 1765.00000    0.30000  455.00000   64.10000
 1765.20000    0.30000  452.00000   64.57000
 1765.40000    0.30000  450.00000   64.91000
 1765.60000    0.30000  449.00000   65.09000
 1765.80000    0.30000  449.00000   65.41000
 1766.00000    0.30000  451.00000   65.68000
 1766.20000    0.30000  454.00000   65.73000
 1766.40000    0.30000  460.00000   65.76000
 1766.60000    0.30000  466.00000   66.35000
 1766.80000    0.30000  474.00000   67.18000
 1767.00000    0.30000  481.00000   65.12000
 1767.20000    0.30000  488.00000   73.84000
 1767.40000    0.30000  496.00000   69.99000
 1767.60000    0.30000  503.00000   66.02000
 1767.80000    0.30000  513.00000   63.51000
 1768.00000    0.30000  521.00000   63.38000
 1768.20000    0.30000  526.00000   63.96000
 1768.40000    0.30000  535.00000   64.85000
 1768.60000    0.30000  542.00000   65.85000
 1768.80000    0.30000  550.00000   66.73000
 1769.00000    0.30000  558.00000   67.28000
 1769.20000    0.30000  563.00000   67.39000
 1769.40000    0.30000  568.00000   67.55000
 1769.60000    0.30000  571.00000   67.80000
 1769.80000    0.30000  575.00000   68.04000
 1770.00000    0.30000  577.00000   68.18000
 1770.20000    0.30000  578.00000   68.17000
 1770.40000    0.30000  581.00000   68.08000
 1770.60000    0.30000  584.00000   67.94000
 1770.80000    0.30000  588.00000   67.76000
 1771.00000    0.30000  631.00000   67.58000
 1771.20000  107.70000  545.00000   67.41000
 1771.40000   37.00000  539.00000   65.37000
 1771.60000   17.00000  535.00000   65.25000
 1771.80000    7.60000  535.00000   65.78000
 1772.00000    3.20000  537.00000   66.30000
 1772.20000    1.20000  539.00000   68.13000
 1772.40000    0.50000  542.00000   68.36000
 1772.60000    0.40000  546.00000   68.55000
 1772.80000    0.30000  552.00000   68.73000
 1773.00000    0.30000  556.00000   68.91000
 1773.20000    0.30000  560.00000   68.85000
 1773.40000    0.20000  564.00000   68.23000
 1773.60000    0.20000  569.00000   68.46000
 1773.80000    0.20000  577.00000   68.73000
 1774.00000    0.20000  581.00000   68.98000
 1774.20000    0.20000  590.00000   70.44000
 1774.40000    0.30000  597.00000   69.54000
 1774.60000    0.30000  605.00000   68.53000
 1774.80000    0.30000  613.00000   67.71000
 1775.00000    0.30000  623.00000   67.37000
 1775.20000    0.30000  628.00000   66.69000
 1775.40000    0.20000  634.00000   66.37000
 1775.60000    0.20000  645.00000   65.57000
 1775.80000    0.20000  653.00000   64.58000
 1776.00000    0.20000  663.00000   65.20000
 1776.20000    0.20000  672.00000   66.83000
 1776.40000    0.20000  679.00000   68.71000
 1776.60000    0.20000  685.00000   70.49000
 1776.80000    0.30000  692.00000   71.45000
 1777.00000    0.30000  699.00000   71.90000
 1777.20000    0.30000  708.00000   72.24000
 1777.40000    0.30000  714.00000   70.85000
 1777.60000    0.30000  723.00000   68.70000
 1777.80000    0.30000  731.00000   67.13000
 1778.00000    0.30000  735.00000   65.88000
 1778.20000    0.30000  740.00000   66.35000
 1778.40000    0.30000  744.00000   66.86000
 1778.60000    0.30000  748.00000   67.39000
 1778.80000    0.30000  751.00000   67.87000
 1779.00000    0.30000  753.00000   67.85000
 1779.20000    0.30000  756.00000   67.37000
 1779.40000    0.30000  760.00000   67.37000
 1779.60000    0.30000  764.00000   67.37000
 1779.80000    0.30000  767.00000   67.79000
 1780.00000    0.30000  773.00000   63.42000
 1780.20000    0.30000  778.00000   65.46000
 1780.40000    0.30000  785.00000   67.79000
 1780.60000    0.30000  788.00000   69.90000
 1780.80000    0.30000  794.00000   71.25000
 1781.00000    0.30000  798.00000   71.50000
 1781.20000    0.30000  804.00000   71.65000
 1781.40000    0.30000  809.00000   71.88000
 1781.60000    0.30000  819.00000   72.12000
 1781.80000    0.30000  828.00000   72.28000
 1782.00000    0.30000  833.00000   72.21000
 1782.20000    0.30000  840.00000   71.52000
 1782.40000    0.30000  846.00000   70.39000
 1782.60000    0.30000  851.00000   69.13000
 1782.80000    0.30000  854.00000   68.04000
 1783.00000    0.30000  854.00000   67.42000
 1783.20000    0.30000  853.00000   67.37000
 1783.40000    0.30000  853.00000   67.37000
 1783.60000    0.30000  853.00000   66.91000
 1783.80000    0.30000  857.00000   65.35000
 1784.00000  113.20000  786.00000   64.43000
 1784.20000   36.50000  792.00000   61.84000
 1784.40000   14.60000  795.00000   61.90000
 1784.60000    6.60000  798.00000   62.99000
 1784.80000    2.70000  800.00000   64.51000
 1785.00000    0.90000  804.00000   66.02000
 1785.20000    0.50000  806.00000   67.10000
 1785.40000    0.40000  808.00000   67.37000
 1785.60000    0.30000  812.00000   67.16000
 1785.80000    0.30000  815.00000   66.12000
 1786.00000    0.20000  816.00000   65.09000
 1786.20000    0.20000  819.00000   64.54000
 1786.40000    0.30000  820.00000   63.28000
 1786.60000    0.30000  820.00000   63.33000
 1786.80000    0.30000  820.00000   63.53000
 1787.00000    0.30000  821.00000   63.79000
 1787.20000    0.30000  820.00000   64.03000
 1787.40000    0.30000  820.00000   64.94000
 1787.60000    0.30000  820.00000   65.24000
 1787.80000    0.30000  820.00000   65.56000
 1788.00000    0.30000  820.00000   65.73000
 1788.20000    0.30000  820.00000   63.85000
 1788.40000    0.30000  820.00000   63.38000
 1788.60000    0.30000  820.00000   63.99000
 1788.80000    0.30000  842.00000   64.91000
 1789.00000    0.30000  865.00000   65.87000
