~Version ---------------------------------------------------
VERS.   2.0 : CWLS log ASCII Standard -VERSION 2.0
WRAP.    NO : One Line per Depth Step
DLM . SPACE : Delimiter between data columns - one or more spaces
~Well ------------------------------------------------------
STRT.m                                                                  650 : First Depth
STOP.m                                                                 1981 : Last Depth
STEP.m                                                                  0.2 : Depth Increment
NULL.                                                               -999.25 : NULL Value
COMP.                                                   Spur Petroleum Ltd. : Well Operator
WELL. SPL 1-13 HZ 104 MartenH 4-17-74-25 Photo Log Leg #4 (2nd Leg f/North) : Well Name
FLD .                                                Marten Hills (Zone 12) : Field
LOC .                                                 Surface: 1-13-74-26W4 : Location
SRVC.                                                RPS Energy Canada Ltd. : Service Company
DATE.                                                                       : Completion Date
CTRY.                                                                Canada : Country
PROV.                                                               Alberta : Province       (required if CTRY = CA)
UWI .                                                 104/04-17-074-25W4/04 : Unique Well ID (required if CTRY = CA)
LIC .                                                                503697 : License        (required if CTRY = CA)
STAT.                                                                       : State          (required if CTRY = US)
CNTY.                                                                       : County         (required if CTRY = US)
API .                                                                       : API Number     (required if CTRY = US)
LATI.DEG                                                                  0 : Latitude  - see Surface Coords comment above
LONG.DEG                                                                  0 : Longitude - see Surface Coords comment above
GDAT.                                                                       : Geodetic Datum
EKB .m                                                                688.9 : K.B. Elevation
EGL .m                                                                684.6 : Ground Level Elevation
~Curve Information -----------------------------------------
DEPTH.m  001 : Depth channel
ROP  .min/m  : 
GAS  .units  : 
GAMMA.API    : 
~Params ----------------------------------------------------
~Other -----------------------------------------------------
~ASCII -----------------------------------------------------
# ...
 1006.00000    0.30000  232.00000   62.15000
 1006.20000    0.30000  224.00000   61.17000
 1006.40000    0.30000  218.00000   60.85000
 1006.60000    0.30000  212.00000   63.81000
 1006.80000    0.30000  207.00000   67.61000
 1007.00000    0.30000  202.00000   68.01000
 1007.20000    0.30000  192.00000   67.08000
 1007.40000    0.30000  187.00000   66.07000
 1007.60000    0.30000  180.00000   65.51000
 1007.80000    0.30000  177.00000   60.88000
 1008.00000    0.30000  302.00000   56.15000
 1008.20000  107.40000  326.00000   57.33000
 1008.40000   47.00000  341.00000   61.15000
 1008.60000   21.00000  348.00000   62.55000
 1008.80000    6.70000  358.00000   64.10000
 1009.00000    3.90000  369.00000   66.52000
 1009.20000    0.80000  373.00000   68.53000
 1009.40000    0.50000  382.00000   68.99000
 1009.60000    0.50000  387.00000   68.67000
 1009.80000    0.50000  390.00000   68.04000
 1010.00000    0.50000  390.00000   67.24000
 1010.20000    0.50000  388.00000   66.37000
 1010.40000    0.50000  387.00000   65.54000
 1010.60000    0.50000  383.00000   64.99000
 1010.80000    0.50000  377.00000   67.86000
 1011.00000    0.50000  366.00000   70.41000
 1011.20000    0.50000  357.00000   71.48000
 1011.40000    0.50000  349.00000   71.48000
 1011.60000    0.50000  346.00000   69.18000
 1011.80000    0.50000  348.00000   64.60000
 1012.00000    0.50000  354.00000   62.86000
 1012.20000    0.50000  358.00000   64.44000
 1012.40000    0.50000  361.00000   66.01000
 1012.60000    0.50000  365.00000   65.79000
 1012.80000    0.50000  373.00000   66.24000
 1013.00000    3.70000  386.00000   66.54000
 1013.20000    1.70000  261.00000   66.36000
 1013.40000    1.00000  255.00000   64.85000
 1013.60000    0.70000  253.00000   61.64000
 1013.80000    0.50000  252.00000   61.83000
 1014.00000    0.40000  250.00000   62.05000
 1014.20000    0.30000  251.00000   62.25000
 1014.40000    0.30000  253.00000   62.39000
 1014.60000    0.30000  255.00000   62.44000
 1014.80000    0.30000  258.00000   62.44000
 1015.00000    0.30000  260.00000   62.44000
 1015.20000    0.30000  262.00000   62.09000
 1015.40000    0.30000  264.00000   61.64000
 1015.60000    0.30000  265.00000   61.39000
 1015.80000    0.30000  265.00000   60.89000
 1016.00000    0.30000  265.00000   60.95000
 1016.20000    0.30000  265.00000   61.97000
 1016.40000    0.30000  266.00000   63.59000
 1016.60000    0.30000  267.00000   65.43000
 1016.80000    0.30000  267.00000   67.09000
 1017.00000    0.30000  261.00000   68.16000
 1017.20000    0.30000  256.00000   60.80000
 1017.40000    0.30000  252.00000   62.67000
 1017.60000    0.30000  247.00000   63.30000
 1017.80000    0.30000  244.00000   63.48000
 1018.00000    0.30000  240.00000   63.74000
 1018.20000    0.30000  236.00000   63.98000
 1018.40000    0.30000  231.00000   64.09000
 1018.60000    0.30000  227.00000   63.56000
 1018.80000    0.30000  223.00000   62.64000
 1019.00000    0.30000  219.00000   62.70000
 1019.20000    0.30000  214.00000   64.57000
 1019.40000    0.30000  209.00000   66.94000
 1019.60000    0.30000  205.00000   68.19000
 1019.80000    0.30000  200.00000   68.75000
 1020.00000    0.30000  192.00000   69.68000
 1020.20000    0.30000  188.00000   69.48000
 1020.40000    0.30000  183.00000   67.52000
 1020.60000    0.30000  180.00000   65.45000
 1020.80000    0.30000  177.00000   64.57000
 1021.00000    0.30000  156.00000   61.69000
 1021.20000  314.60000  164.00000   60.92000
 1021.40000   71.90000  169.00000   61.95000
 1021.60000   28.90000  175.00000   63.28000
 1021.80000   11.80000  183.00000   64.07000
 1022.00000    3.80000  197.00000   64.42000
 1022.20000    0.70000  229.00000   65.42000
 1022.40000    0.50000  270.00000   66.67000
 1022.60000    0.50000  298.00000   67.74000
 1022.80000    0.50000  311.00000   68.19000
 1023.00000    0.50000  332.00000   68.09000
 1023.20000    0.50000  352.00000   67.79000
 1023.40000    0.50000  361.00000   67.36000
 1023.60000    0.50000  386.00000   66.83000
 1023.80000    0.50000  404.00000   66.27000
 1024.00000    0.50000  427.00000   65.71000
 1024.20000    0.50000  457.00000   65.20000
 1024.40000    0.50000  481.00000   65.80000
 1024.60000    0.50000  493.00000   67.86000
 1024.80000    0.50000  560.00000   68.88000
 1025.00000    0.50000  462.00000   69.93000
 1025.20000    2.90000  441.00000   69.98000
 1025.40000    1.40000  344.00000   67.96000
 1025.60000    0.90000  342.00000   67.54000
 1025.80000    0.60000  338.00000   67.10000
 1026.00000    0.50000  334.00000   66.66000
 1026.20000    0.40000  330.00000   66.23000
 1026.40000    0.30000  322.00000   65.82000
 1026.60000    0.30000  315.00000   62.62000
 1026.80000    0.30000  309.00000   58.99000
 1027.00000    0.30000  305.00000   54.96000
 1027.20000    0.30000  303.00000   52.62000
 1027.40000    0.30000  303.00000   53.33000
 1027.60000    0.30000  307.00000   52.80000
 1027.80000    0.30000  310.00000   51.64000
 1028.00000    0.30000  319.00000   50.40000
 1028.20000    0.30000  335.00000   49.50000
 1028.40000    0.40000  355.00000   49.30000
 1028.60000    0.40000  370.00000   50.29000
 1028.80000    0.50000  386.00000   53.18000
 1029.00000    0.50000  396.00000   55.96000
 1029.20000    0.40000  408.00000   57.11000
 1029.40000    0.40000  421.00000   56.90000
 1029.60000    0.40000  429.00000   54.74000
 1029.80000    0.50000  429.00000   51.81000
 1030.00000    0.60000  424.00000   48.81000
 1030.20000    0.60000  413.00000   50.94000
 1030.40000    0.50000  403.00000   51.25000
 1030.60000    0.50000  391.00000   53.50000
 1030.80000    0.40000  381.00000   55.02000
 1031.00000    0.40000  367.00000   59.03000
 1031.20000    0.40000  358.00000   58.89000
 1031.40000    0.40000  347.00000   58.40000
 1031.60000    0.30000  338.00000   62.10000
 1031.80000    0.30000  332.00000   67.33000
 1032.00000    0.30000  323.00000   66.78000
 1032.20000    0.30000  309.00000   66.63000
 1032.40000    0.20000  299.00000   67.29000
 1032.60000    0.20000  289.00000   66.55000
 1032.80000    0.20000  281.00000   63.75000
 1033.00000    0.20000  267.00000   61.68000
 1033.20000    0.20000  257.00000   62.09000
 1033.40000    0.20000  247.00000   63.31000
 1033.60000    0.20000  238.00000   64.08000
 1033.80000    0.20000  226.00000   63.62000
 1034.00000    0.20000  158.00000   62.71000
 1034.20000  128.50000  174.00000   63.04000
 1034.40000   46.70000  190.00000   68.02000
 1034.60000   20.90000  209.00000   69.02000
 1034.80000    8.00000  231.00000   69.02000
 1035.00000    2.60000  253.00000   69.02000
 1035.20000    0.70000  272.00000   69.02000
 1035.40000    0.50000  321.00000   69.02000
 1035.60000    0.50000  312.00000   69.02000
 1035.80000    0.50000  309.00000   69.02000
 1036.00000    0.50000  300.00000   69.02000
 1036.20000    0.50000  298.00000   69.01000
 1036.40000    0.50000  290.00000   68.71000
 1036.60000    0.50000  285.00000   68.29000
 1036.80000    0.50000  283.00000   68.10000
 1037.00000    0.50000  282.00000   67.53000
 1037.20000    0.50000  281.00000   67.35000
 1037.40000    0.50000  282.00000   67.19000
 1037.60000    0.60000  287.00000   66.93000
 1037.80000    0.60000  292.00000   66.69000
 1038.00000    5.10000  361.00000   66.56000
 1038.20000    2.00000  372.00000   66.55000
 1038.40000    1.10000  380.00000   66.55000
 1038.60000    0.70000  385.00000   66.55000
 1038.80000    0.60000  393.00000   66.48000
 1039.00000    0.40000  399.00000   65.80000
 1039.20000    0.40000  404.00000   64.75000
 1039.40000    0.30000  408.00000   63.76000
 1039.60000    0.30000  412.00000   63.27000
 1039.80000    0.30000  415.00000   63.26000
 1040.00000    0.30000  415.00000   63.26000
 1040.20000    0.30000  414.00000   63.26000
 1040.40000    0.30000  262.00000   63.26000
 1040.60000    0.30000  257.00000   63.26000
 1040.80000    0.30000  253.00000   63.27000
 1041.00000    0.30000  248.00000   63.46000
 1041.20000    0.30000  244.00000   63.80000
 1041.40000    0.30000  239.00000   64.10000
