~Version ---------------------------------------------------
VERS.   2.0 : CWLS log ASCII Standard -VERSION 2.0
WRAP.    NO : One Line per Depth Step
DLM . SPACE : Delimiter between data columns - one or more spaces
~Well ------------------------------------------------------
STRT.m                                                                  650 : First Depth
STOP.m                                                                 1981 : Last Depth
STEP.m                                                                  0.2 : Depth Increment
NULL.                                                               -999.25 : NULL Value
COMP.                                                   Spur Petroleum Ltd. : Well Operator
WELL. SPL 1-13 HZ 104 MartenH 4-17-74-25 Photo Log Leg #4 (2nd Leg f/North) : Well Name
FLD .                                                Marten Hills (Zone 12) : Field
LOC .                                                 Surface: 1-13-74-26W4 : Location
SRVC.                                                RPS Energy Canada Ltd. : Service Company
DATE.                                                                       : Completion Date
CTRY.                                                                Canada : Country
PROV.                                                               Alberta : Province       (required if CTRY = CA)
UWI .                                                 104/04-17-074-25W4/04 : Unique Well ID (required if CTRY = CA)
LIC .                                                                503697 : License        (required if CTRY = CA)
STAT.                                                                       : State          (required if CTRY = US)
CNTY.                                                                       : County         (required if CTRY = US)
API .                                                                       : API Number     (required if CTRY = US)
LATI.DEG                                                                  0 : Latitude  - see Surface Coords comment above
LONG.DEG                                                                  0 : Longitude - see Surface Coords comment above
GDAT.                                                                       : Geodetic Datum
EKB .m                                                                688.9 : K.B. Elevation
EGL .m                                                                684.6 : Ground Level Elevation
~Curve Information -----------------------------------------
DEPTH.m  001 : Depth channel
ROP  .min/m  : 
GAS  .units  : 
GAMMA.API    : 
~Params ----------------------------------------------------
~Other -----------------------------------------------------
~ASCII -----------------------------------------------------
# ...
 1860.40000    0.20000  451.00000   66.22000
 1860.60000    0.20000  439.00000   66.50000
 1860.80000    0.20000  430.00000   66.35000
 1861.00000    0.20000  421.00000   64.76000
 1861.20000    0.20000  412.00000   62.31000
 1861.40000    0.20000  401.00000   59.91000
 1861.60000    0.20000  391.00000   58.46000
 1861.80000    0.20000  378.00000   58.43000
 1862.00000    0.20000  369.00000   58.92000
 1862.20000    0.20000  361.00000   59.70000
 1862.40000    0.30000  352.00000   60.63000
 1862.60000    0.20000  345.00000   61.59000
 1862.80000    0.20000  339.00000   62.43000
 1863.00000    0.20000  331.00000   63.03000
 1863.20000    0.20000  323.00000   63.26000
 1863.40000   75.30000  185.00000   63.36000
 1863.60000    5.20000  360.00000   63.58000
 1863.80000    1.70000  356.00000   63.84000
 1864.00000    1.10000  346.00000   64.04000
 1864.20000    0.80000  350.00000   64.05000
 1864.40000    0.90000  367.00000   63.45000
 1864.60000    0.90000  378.00000   62.36000
 1864.80000    0.80000  419.00000   61.09000
 1865.00000    0.90000  451.00000   59.94000
 1865.20000    0.80000  491.00000   59.24000
 1865.40000    0.70000  637.00000   59.16000
 1865.60000    0.70000  623.00000   59.59000
 1865.80000    0.80000  610.00000   60.51000
 1866.00000    0.80000  585.00000   61.38000
 1866.20000    4.60000  668.00000   61.98000
 1866.40000    2.10000  687.00000   62.28000
 1866.60000    1.00000  704.00000   61.48000
 1866.80000    0.70000  716.00000   60.41000
 1867.00000    0.50000  726.00000   59.35000
 1867.20000    0.40000  733.00000   58.57000
 1867.40000    0.40000  738.00000   58.33000
 1867.60000    0.30000  741.00000   58.33000
 1867.80000    0.30000  743.00000   58.33000
 1868.00000    0.30000  744.00000   59.08000
 1868.20000    0.30000  744.00000   59.98000
 1868.40000    0.30000  744.00000   59.56000
 1868.60000    0.30000  743.00000   59.16000
 1868.80000    0.30000  742.00000   59.20000
 1869.00000    0.30000  739.00000   59.33000
 1869.20000    0.30000  735.00000   59.51000
 1869.40000    0.30000  731.00000   59.70000
 1869.60000    0.30000  726.00000   59.88000
 1869.80000    0.30000  720.00000   59.62000
 1870.00000    0.30000  709.00000   58.90000
 1870.20000    0.30000  697.00000   58.35000
 1870.40000    0.30000  688.00000   57.78000
 1870.60000    0.30000  678.00000   59.11000
 1870.80000    0.30000  669.00000   60.21000
 1871.00000    0.30000  661.00000   60.58000
 1871.20000    0.30000  649.00000   60.96000
 1871.40000    0.30000  640.00000   61.32000
 1871.60000    0.30000  627.00000   61.60000
 1871.80000    0.30000  614.00000   59.99000
 1872.00000    0.30000  605.00000   60.23000
 1872.20000    0.30000  595.00000   60.52000
 1872.40000    0.30000  589.00000   60.79000
 1872.60000    0.30000  578.00000   56.00000
 1872.80000    0.30000  565.00000   56.08000
 1873.00000    0.30000  557.00000   56.34000
 1873.20000    0.30000  547.00000   56.56000
 1873.40000    0.30000  541.00000   56.68000
 1873.60000    0.30000  537.00000   56.93000
 1873.80000    0.30000  529.00000   57.87000
 1874.00000    0.30000  523.00000   59.01000
 1874.20000    0.30000  521.00000   59.84000
 1874.40000    0.30000  519.00000   60.38000
 1874.60000    0.30000  520.00000   61.62000
 1874.80000    0.30000  524.00000   61.31000
 1875.00000    0.30000  527.00000   60.61000
 1875.20000    0.30000  531.00000   60.14000
 1875.40000    0.30000  535.00000   58.44000
 1875.60000    0.30000  539.00000   62.62000
 1875.80000    0.30000  543.00000   63.26000
 1876.00000    0.30000  547.00000   63.26000
 1876.20000    0.30000  704.00000   63.26000
 1876.40000    3.90000  719.00000   62.38000
 1876.60000    2.00000  722.00000   57.42000
 1876.80000    1.30000  726.00000   62.87000
 1877.00000    0.80000  730.00000   64.74000
 1877.20000    0.60000  737.00000   62.47000
 1877.40000    0.40000  746.00000   64.09000
 1877.60000    0.30000  751.00000   65.31000
 1877.80000    0.30000  756.00000   65.36000
 1878.00000    0.30000  761.00000   62.27000
 1878.20000    0.30000  766.00000   62.13000
 1878.40000    0.30000  771.00000   63.92000
 1878.60000    0.30000  775.00000   62.71000
 1878.80000    0.30000  778.00000   61.65000
 1879.00000    0.30000  781.00000   59.31000
 1879.20000    0.30000  782.00000   57.27000
 1879.40000    0.30000  785.00000   58.89000
 1879.60000    0.30000  786.00000   60.97000
 1879.80000    0.30000  786.00000   60.09000
 1880.00000    0.30000  786.00000   58.24000
 1880.20000    0.30000  783.00000   56.37000
 1880.40000    0.30000  781.00000   57.18000
 1880.60000    0.30000  780.00000   58.53000
 1880.80000    0.30000  778.00000   59.17000
 1881.00000    0.30000  777.00000   59.92000
 1881.20000    0.30000  775.00000   60.71000
 1881.40000    0.30000  773.00000   61.43000
 1881.60000    0.30000  767.00000   62.02000
 1881.80000    0.30000  761.00000   62.38000
 1882.00000    0.30000  756.00000   62.44000
 1882.20000    0.30000  744.00000   62.44000
 1882.40000    0.30000  730.00000   62.44000
 1882.60000    0.30000  722.00000   62.44000
 1882.80000    0.30000  715.00000   62.35000
 1883.00000    0.30000  708.00000   61.71000
 1883.20000    0.30000  700.00000   61.60000
 1883.40000    0.30000  693.00000   61.50000
 1883.60000    0.30000  680.00000   61.34000
 1883.80000    0.30000  671.00000   61.15000
 1884.00000    0.30000  662.00000   60.98000
 1884.20000    0.30000  650.00000   60.85000
 1884.40000    0.30000  642.00000   60.80000
 1884.60000    0.30000  632.00000   60.80000
 1884.80000    0.30000  622.00000   60.80000
 1885.00000    0.30000  608.00000   60.80000
 1885.20000    0.30000  600.00000   60.80000
 1885.40000    0.30000  592.00000   60.80000
 1885.60000    0.30000  584.00000   60.29000
 1885.80000    0.30000  578.00000   60.08000
 1886.00000    0.30000  567.00000   61.18000
 1886.20000    0.30000  565.00000   62.30000
 1886.40000    0.30000  562.00000   62.44000
 1886.60000    0.30000  559.00000   62.44000
 1886.80000    0.30000  557.00000   62.44000
 1887.00000    0.30000  554.00000   62.44000
 1887.20000    0.30000  551.00000   62.44000
 1887.40000    0.30000  545.00000   62.42000
 1887.60000    0.30000  542.00000   62.24000
 1887.80000    0.30000  536.00000   61.98000
 1888.00000    0.30000  532.00000   61.74000
 1888.20000    0.30000  528.00000   61.62000
 1888.40000    0.30000  524.00000   61.31000
 1888.60000    0.30000  515.00000   60.80000
 1888.80000    0.30000  508.00000   57.99000
 1889.00000    0.30000  503.00000   62.14000
 1889.20000    0.30000  494.00000   61.11000
 1889.40000    3.40000  292.00000   58.33000
 1889.60000   44.90000  240.00000   58.33000
 1889.80000   16.00000  237.00000   58.33000
 1890.00000    5.90000  234.00000   58.33000
 1890.20000    2.20000  233.00000   58.34000
 1890.40000    0.80000  231.00000   58.85000
 1890.60000    0.50000  229.00000   59.90000
 1890.80000    0.40000  229.00000   61.17000
 1891.00000    0.30000  264.00000   62.35000
 1891.20000    2.40000  109.00000   63.13000
 1891.40000    1.20000  105.00000   63.17000
 1891.60000    0.80000  106.00000   62.31000
 1891.80000    0.70000  106.00000   60.83000
 1892.00000    0.70000  104.00000   59.04000
 1892.20000    1.60000  102.00000   57.27000
 1892.40000    1.40000  106.00000   55.85000
 1892.60000    0.90000  112.00000   55.09000
 1892.80000    0.80000  123.00000   53.99000
 1893.00000    1.20000  139.00000   52.60000
 1893.20000    1.80000  168.00000   53.42000
 1893.40000    2.20000  177.00000   54.82000
 1893.60000    1.90000  177.00000   55.83000
 1893.80000    1.90000  167.00000   53.70000
 1894.00000    2.20000  156.00000   51.46000
 1894.20000    1.50000  204.00000   47.53000
 1894.40000    2.80000  247.00000   43.92000
 1894.60000    1.10000  301.00000   42.81000
 1894.80000    0.90000  354.00000   44.31000
 1895.00000    0.90000  399.00000   45.06000
 1895.20000    0.90000  446.00000   46.85000
 1895.40000    0.90000  480.00000   48.31000
 1895.60000    0.80000  505.00000   48.71000
 1895.80000    0.70000  517.00000   49.29000
