~Version ---------------------------------------------------
VERS.   2.0 : CWLS log ASCII Standard -VERSION 2.0
WRAP.    NO : One Line per Depth Step
DLM . SPACE : Delimiter between data columns - one or more spaces
~Well ------------------------------------------------------
STRT.m                                                                  650 : First Depth
STOP.m                                                                 1981 : Last Depth
STEP.m                                                                  0.2 : Depth Increment
NULL.                                                               -999.25 : NULL Value
COMP.                                                   Spur Petroleum Ltd. : Well Operator
WELL. SPL 1-13 HZ 104 MartenH 4-17-74-25 Photo Log Leg #4 (2nd Leg f/North) : Well Name
FLD .                                                Marten Hills (Zone 12) : Field
LOC .                                                 Surface: 1-13-74-26W4 : Location
SRVC.                                                RPS Energy Canada Ltd. : Service Company
DATE.                                                                       : Completion Date
CTRY.                                                                Canada : Country
PROV.                                                               Alberta : Province       (required if CTRY = CA)
UWI .                                                 104/04-17-074-25W4/04 : Unique Well ID (required if CTRY = CA)
LIC .                                                                503697 : License        (required if CTRY = CA)
STAT.                                                                       : State          (required if CTRY = US)
CNTY.                                                                       : County         (required if CTRY = US)
API .                                                                       : API Number     (required if CTRY = US)
LATI.DEG                                                                  0 : Latitude  - see Surface Coords comment above
LONG.DEG                                                                  0 : Longitude - see Surface Coords comment above
GDAT.                                                                       : Geodetic Datum
EKB .m                                                                688.9 : K.B. Elevation
EGL .m                                                                684.6 : Ground Level Elevation
~Curve Information -----------------------------------------
DEPTH.m  001 : Depth channel
ROP  .min/m  : 
GAS  .units  : 
GAMMA.API    : 
~Params ----------------------------------------------------
~Other -----------------------------------------------------
~ASCII -----------------------------------------------------
# ...
  721.20000    0.50000 1195.00000   61.05000
  721.40000    0.50000 1206.00000   60.12000
  721.60000    0.50000 1242.00000   60.12000
  721.80000    0.50000 1264.00000   59.18000
  722.00000    0.50000 1285.00000   57.74000
  722.20000    0.60000 1324.00000   61.42000
  722.40000    0.60000 1357.00000   67.11000
  722.60000    0.60000 1403.00000   64.38000
  722.80000    0.60000 1451.00000   60.12000
  723.00000    0.60000 1491.00000   57.06000
  723.20000    0.60000 1522.00000   54.15000
  723.40000    0.60000 1560.00000   65.87000
  723.60000    0.60000 1592.00000   67.65000
  723.80000    0.60000 1624.00000   63.77000
  724.00000    0.60000 1641.00000   60.12000
  724.20000    0.60000 1643.00000   57.27000
  724.40000    0.60000 1642.00000   56.64000
  724.60000    0.60000 1631.00000   58.17000
  724.80000    0.60000 1608.00000   60.58000
  725.00000    0.70000 1587.00000   64.67000
  725.20000    0.60000 1562.00000   67.35000
  725.40000    0.60000 1503.00000   68.50000
  725.60000    0.60000 1455.00000   67.16000
  725.80000    0.60000 1413.00000   65.28000
  726.00000    0.70000 1365.00000   63.36000
  726.20000    0.70000 1320.00000   61.42000
  726.40000    6.00000 1299.00000   60.26000
  726.60000    2.70000 1133.00000   61.17000
  726.80000    1.20000 1122.00000   60.23000
  727.00000    0.70000 1101.00000   62.77000
  727.20000    0.50000 1085.00000   63.05000
  727.40000    0.40000 1066.00000   51.98000
  727.60000    0.40000 1054.00000   55.12000
  727.80000    0.40000 1034.00000   55.63000
  728.00000    0.40000 1020.00000   56.36000
  728.20000    0.40000 1006.00000   56.51000
  728.40000    0.40000  985.00000   56.51000
  728.60000    0.40000  969.00000   56.51000
  728.80000    0.40000  955.00000   55.53000
  729.00000    0.40000  945.00000   57.51000
  729.20000    0.40000  934.00000   58.63000
  729.40000    0.40000  912.00000   52.68000
  729.60000  410.80000  720.00000   55.08000
  729.80000  124.00000  725.00000   58.85000
  730.00000   40.20000  733.00000   61.68000
  730.20000   11.70000  746.00000   60.90000
  730.40000    2.00000  757.00000   55.47000
  730.60000    0.90000  766.00000   52.26000
  730.80000    0.90000  774.00000   55.74000
  731.00000    0.80000  780.00000   59.10000
  731.20000    0.80000  783.00000   55.51000
  731.40000    0.80000  789.00000   56.38000
  731.60000    1.00000  802.00000   61.87000
  731.80000    1.00000  810.00000   63.19000
  732.00000    0.90000  818.00000   59.95000
  732.20000    0.80000  826.00000   54.45000
  732.40000    0.70000  830.00000   53.96000
  732.60000    0.70000  830.00000   53.86000
  732.80000    0.70000  827.00000   55.25000
  733.00000    0.70000  824.00000   56.80000
  733.20000    0.70000  819.00000   60.12000
  733.40000    0.80000  819.00000   60.12000
  733.60000    0.70000  818.00000   60.12000
  733.80000    0.70000  818.00000   59.29000
  734.00000    0.70000  823.00000   57.26000
  734.20000    0.70000  826.00000   56.51000
  734.40000    0.60000  835.00000   56.51000
  734.60000    0.60000  845.00000   58.92000
  734.80000    0.60000  856.00000   62.86000
  735.00000    0.50000  867.00000   59.80000
  735.20000    0.50000  879.00000   61.28000
  735.40000    0.50000  893.00000   62.58000
  735.60000    0.50000  904.00000   60.89000
  735.80000    0.50000  922.00000   58.52000
  736.00000    0.50000  939.00000   57.71000
  736.20000    0.50000  952.00000   57.71000
  736.40000    0.50000  960.00000   56.62000
  736.60000    0.50000  973.00000   60.68000
  736.80000    0.50000  986.00000   61.58000
  737.00000    0.50000  997.00000   60.82000
  737.20000    0.60000 1008.00000   61.21000
  737.40000    0.60000 1017.00000   60.36000
  737.60000    0.60000 1029.00000   59.57000
  737.80000    0.60000 1038.00000   58.47000
  738.00000    0.60000 1052.00000   57.52000
  738.20000    0.60000 1069.00000   55.31000
  738.40000    7.30000 1089.00000   56.39000
  738.60000    2.40000  914.00000   56.65000
  738.80000    1.20000  916.00000   60.19000
  739.00000    0.70000  918.00000   62.89000
  739.20000    0.50000  918.00000   63.01000
  739.40000    0.50000  916.00000   61.36000
  739.60000    0.40000  914.00000   61.27000
  739.80000    0.40000  911.00000   59.78000
  740.00000    0.40000  907.00000   58.92000
  740.20000    0.40000  904.00000   55.48000
  740.40000    0.40000  903.00000   61.32000
  740.60000    0.30000  901.00000   62.48000
  740.80000    0.30000  900.00000   62.52000
  741.00000    0.40000  900.00000   62.52000
  741.20000    0.40000  898.00000   67.53000
  741.40000    0.40000  897.00000   70.63000
  741.60000    0.40000  896.00000   66.07000
  741.80000    0.40000  893.00000   68.74000
  742.00000    0.40000  893.00000   65.41000
  742.20000    0.40000  895.00000   64.74000
  742.40000    0.40000  863.00000   64.01000
  742.60000  487.50000  868.00000   63.72000
  742.80000  103.20000  869.00000   63.72000
  743.00000   33.40000  871.00000   63.72000
  743.20000    8.30000  870.00000   63.72000
  743.40000    1.70000  868.00000   63.69000
  743.60000    0.70000  867.00000   62.10000
  743.80000    0.60000  875.00000   59.77000
  744.00000    0.60000  889.00000   51.87000
  744.20000    0.60000  905.00000   45.49000
  744.40000    0.70000  918.00000   43.91000
  744.60000    0.80000  926.00000   37.88000
  744.80000    1.10000  936.00000   31.84000
  745.00000    1.10000  941.00000   30.08000
  745.20000    1.10000  942.00000   28.30000
  745.40000    1.10000  947.00000   30.49000
  745.60000    1.00000  955.00000   33.60000
  745.80000    1.00000  959.00000   36.07000
  746.00000    0.90000  961.00000   37.27000
  746.20000    0.90000  973.00000   37.27000
  746.40000    0.90000  981.00000   37.27000
  746.60000    1.00000  985.00000   38.71000
  746.80000    0.90000  987.00000   40.48000
  747.00000    0.90000  989.00000   41.66000
  747.20000    0.90000  989.00000   45.61000
  747.40000    0.80000  991.00000   50.48000
  747.60000    0.70000  995.00000   54.36000
  747.80000    0.60000 1000.00000   56.00000
  748.00000    0.60000 1004.00000   58.49000
  748.20000    0.50000 1009.00000   58.88000
  748.40000    0.50000 1017.00000   61.77000
  748.60000    0.40000 1021.00000   62.54000
  748.80000    0.40000 1022.00000   64.45000
  749.00000    0.40000 1023.00000   61.36000
  749.20000    0.40000 1022.00000   61.32000
  749.40000    0.40000 1017.00000   59.53000
  749.60000    0.40000 1011.00000   59.86000
  749.80000    0.40000 1003.00000   60.12000
  750.00000    0.40000  986.00000   59.58000
  750.20000    0.50000  962.00000   56.82000
  750.40000    0.70000  932.00000   51.35000
  750.60000    0.80000  921.00000   45.77000
  750.80000    0.90000  801.00000   41.40000
  751.00000    0.80000  788.00000   39.43000
  751.20000    0.70000  762.00000   38.48000
  751.40000    0.70000  739.00000   38.48000
  751.60000    0.80000  735.00000   38.48000
  751.80000    0.80000  734.00000   41.05000
  752.00000    0.80000  728.00000   44.78000
  752.20000    0.70000  721.00000   49.30000
  752.40000    0.60000  712.00000   57.34000
  752.60000    0.50000  704.00000   59.05000
  752.80000    0.50000  699.00000   60.12000
  753.00000    0.50000  696.00000   62.99000
  753.20000    0.40000  695.00000   62.22000
  753.40000    0.40000  695.00000   64.93000
  753.60000    0.40000  694.00000   64.42000
  753.80000    0.40000  692.00000   63.73000
  754.00000    0.40000  690.00000   61.91000
  754.20000    0.40000  687.00000   60.94000
  754.40000    0.40000  683.00000   59.40000
  754.60000    0.40000  680.00000   59.40000
  754.80000    0.40000  675.00000   61.33000
  755.00000    0.40000  669.00000   62.28000
  755.20000    0.40000  760.00000   63.61000
  755.40000    0.40000  773.00000   66.12000
  755.60000  147.70000  783.00000   62.21000
  755.80000   59.30000  792.00000   58.92000
  756.00000   19.40000  804.00000   59.43000
  756.20000    5.80000  812.00000   60.53000
  756.40000    1.30000  819.00000   61.74000
  756.60000    0.70000  832.00000   62.35000
