~Version ---------------------------------------------------
VERS.   2.0 : CWLS log ASCII Standard -VERSION 2.0
WRAP.    NO : One Line per Depth Step
DLM . SPACE : Delimiter between data columns - one or more spaces
~Well ------------------------------------------------------
STRT.m                                                                  650 : First Depth
STOP.m                                                                 1981 : Last Depth
STEP.m                                                                  0.2 : Depth Increment
NULL.                                                               -999.25 : NULL Value
COMP.                                                   Spur Petroleum Ltd. : Well Operator
WELL. SPL 1-13 HZ 104 MartenH 4-17-74-25 Photo Log Leg #4 (2nd Leg f/North) : Well Name
FLD .                                                Marten Hills (Zone 12) : Field
LOC .                                                 Surface: 1-13-74-26W4 : Location
SRVC.                                                RPS Energy Canada Ltd. : Service Company
DATE.                                                                       : Completion Date
CTRY.                                                                Canada : Country
PROV.                                                               Alberta : Province       (required if CTRY = CA)
UWI .                                                 104/04-17-074-25W4/04 : Unique Well ID (required if CTRY = CA)
LIC .                                                                503697 : License        (required if CTRY = CA)
STAT.                                                                       : State          (required if CTRY = US)
CNTY.                                                                       : County         (required if CTRY = US)
API .                                                                       : API Number     (required if CTRY = US)
LATI.DEG                                                                  0 : Latitude  - see Surface Coords comment above
LONG.DEG                                                                  0 : Longitude - see Surface Coords comment above
GDAT.                                                                       : Geodetic Datum
EKB .m                                                                688.9 : K.B. Elevation
EGL .m                                                                684.6 : Ground Level Elevation
~Curve Information -----------------------------------------
DEPTH.m  001 : Depth channel
ROP  .min/m  : 
GAS  .units  : 
GAMMA.API    : 
~Params ----------------------------------------------------
~Other -----------------------------------------------------
~ASCII -----------------------------------------------------
# ...
 1931.60000    0.30000  714.00000   61.91000
 1931.80000    0.30000  719.00000   62.92000
 1932.00000    0.30000  724.00000   64.15000
 1932.20000    0.30000  728.00000   65.37000
 1932.40000    0.30000  730.00000   66.35000
 1932.60000    0.30000  731.00000   67.48000
 1932.80000    0.30000  732.00000   68.24000
 1933.00000    0.30000  732.00000   69.10000
 1933.20000    0.30000  731.00000   69.79000
 1933.40000    0.30000  733.00000   70.62000
 1933.60000    0.30000  735.00000   70.18000
 1933.80000    0.30000  737.00000   69.62000
 1934.00000    0.30000  740.00000   69.03000
 1934.20000    0.30000  744.00000   68.47000
 1934.40000    0.30000  747.00000   67.22000
 1934.60000    0.30000  752.00000   65.82000
 1934.80000    0.30000  755.00000   64.46000
 1935.00000    0.30000  758.00000   63.09000
 1935.20000    0.30000  760.00000   64.25000
 1935.40000    0.30000  760.00000   65.67000
 1935.60000    0.30000    0.00000   66.80000
 1935.80000    0.30000    0.00000   67.99000
 1936.00000    0.30000    0.00000   69.12000
 1936.20000    0.30000    0.00000   69.09000
 1936.40000    0.30000    0.00000   65.50000
 1936.60000    0.30000    0.00000   64.52000
 1936.80000    0.30000    0.00000   63.45000
 1937.00000    0.30000    0.00000   62.50000
 1937.20000    0.30000    0.00000   64.58000
 1937.40000    0.30000    0.00000   63.60000
 1937.60000    0.30000    0.00000   62.53000
 1937.80000    0.30000    0.00000   61.56000
 1938.00000    0.30000    0.00000   60.86000
 1938.20000    0.30000    0.00000   61.44000
 1938.40000    0.30000    0.00000   65.05000
 1938.60000    0.30000    0.00000   63.23000
 1938.80000    0.30000    0.00000   62.82000
 1939.00000    0.30000    0.00000   62.31000
 1939.20000    0.30000    0.00000   61.81000
 1939.40000    0.30000    0.00000   65.70000
 1939.60000    0.30000    0.00000   65.65000
 1939.80000    0.30000    0.00000   64.44000
 1940.00000    0.30000    0.00000   63.67000
 1940.20000    0.30000    0.00000   59.60000
 1940.40000    0.30000    0.00000   59.63000
 1940.60000    0.30000    0.00000   61.31000
 1940.80000    0.30000    0.00000   62.91000
 1941.00000    0.30000    0.00000   63.24000
 1941.20000    0.30000    0.00000   63.03000
 1941.40000    0.30000    0.00000   62.66000
 1941.60000    0.30000    0.00000   62.24000
 1941.80000    0.30000    0.00000   61.87000
 1942.00000    0.30000    0.00000   61.65000
 1942.20000  249.90000    0.00000   61.98000
 1942.40000   54.30000    0.00000   63.50000
 1942.60000   20.10000    0.00000   64.02000
 1942.80000    8.10000    0.00000   63.00000
 1943.00000    2.90000    0.00000   61.83000
 1943.20000    0.90000    0.00000   61.87000
 1943.40000    0.50000    0.00000   62.44000
 1943.60000    0.40000    0.00000   62.33000
 1943.80000    0.30000    0.00000   62.08000
 1944.00000    0.30000    0.00000   61.75000
 1944.20000    0.30000    0.00000   61.38000
 1944.40000    0.20000    0.00000   61.03000
 1944.60000    0.20000    0.00000   61.20000
 1944.80000    0.20000    0.00000   62.75000
 1945.00000    0.20000    0.00000   63.45000
 1945.20000    0.30000    0.00000   64.00000
 1945.40000    0.30000    0.00000   64.09000
 1945.60000    0.30000    0.00000   64.09000
 1945.80000    0.30000    0.00000   63.95000
 1946.00000    0.30000    0.00000   63.58000
 1946.20000    0.30000    0.00000   63.10000
 1946.40000    0.30000    0.00000   62.64000
 1946.60000    0.30000    0.00000   63.26000
 1946.80000    0.30000    0.00000   63.71000
 1947.00000    0.30000    0.00000   64.24000
 1947.20000    0.30000    0.00000   64.74000
 1947.40000    0.30000    0.00000   63.44000
 1947.60000    0.30000    0.00000   62.44000
 1947.80000    0.30000    0.00000   62.44000
 1948.00000    0.30000    0.00000   62.44000
 1948.20000    0.30000    0.00000   62.44000
 1948.40000    0.30000    0.00000   63.73000
 1948.60000    0.30000    0.00000   66.06000
 1948.80000    0.30000    0.00000   67.86000
 1949.00000    0.30000    0.00000   69.39000
 1949.20000    0.30000    0.00000   70.36000
 1949.40000    0.30000    0.00000   70.66000
 1949.60000    0.30000    0.00000   70.66000
 1949.80000    0.30000    0.00000   70.66000
 1950.00000    0.30000    0.00000   70.66000
 1950.20000    0.30000    0.00000   70.66000
 1950.40000    0.30000    0.00000   67.94000
 1950.60000    0.30000    0.00000   66.87000
 1950.80000    0.30000    0.00000   65.74000
 1951.00000    0.30000    0.00000   64.89000
 1951.20000    0.30000    0.00000   63.88000
 1951.40000    0.30000    0.00000   63.31000
 1951.60000    0.30000    0.00000   62.76000
 1951.80000    0.30000    0.00000   62.45000
 1952.00000    0.30000    0.00000   62.34000
 1952.20000    0.30000    0.00000   61.96000
 1952.40000    0.30000    0.00000   61.43000
 1952.60000    0.30000    0.00000   60.85000
 1952.80000    0.30000    0.00000   60.34000
 1953.00000    0.30000    0.00000   60.03000
 1953.20000    0.30000    0.00000   60.01000
 1953.40000    0.30000    0.00000   60.30000
 1953.60000    0.30000    0.00000   60.76000
 1953.80000    0.30000    0.00000   61.22000
 1954.00000    0.30000    0.00000   61.55000
 1954.20000    0.30000    0.00000   61.63000
 1954.40000    0.30000    0.00000   61.80000
 1954.60000    0.30000    0.00000   62.10000
 1954.80000    0.30000    0.00000   62.48000
 1955.00000    0.30000    0.00000   62.86000
 1955.20000    7.10000    0.00000   63.18000
 1955.40000    2.00000    0.00000   62.58000
 1955.60000    1.00000    0.00000   62.71000
 1955.80000    0.90000    0.00000   63.10000
 1956.00000    1.00000    0.00000   63.58000
 1956.20000    1.00000    0.00000   64.09000
 1956.40000    1.20000    0.00000   64.09000
 1956.60000    0.70000    0.00000   64.09000
 1956.80000    0.70000    0.00000   60.54000
 1957.00000    0.80000    0.00000   55.53000
 1957.20000    0.80000    0.00000   64.60000
 1957.40000    3.90000    0.00000   57.35000
 1957.60000    1.70000    0.00000   63.16000
 1957.80000    0.90000    0.00000   61.85000
 1958.00000    0.60000    0.00000   60.21000
 1958.20000    0.50000    0.00000   60.59000
 1958.40000    0.40000    0.00000   60.80000
 1958.60000    0.40000    0.00000   60.81000
 1958.80000    0.30000    0.00000   61.01000
 1959.00000    0.30000    0.00000   61.31000
 1959.20000    0.30000    0.00000   61.56000
 1959.40000    0.30000    0.00000   61.68000
 1959.60000    0.30000    0.00000   62.24000
 1959.80000    0.30000    0.00000   62.62000
 1960.00000    0.30000    0.00000   64.10000
 1960.20000    0.20000    0.00000   64.90000
 1960.40000    0.20000    0.00000   64.45000
 1960.60000    0.20000    0.00000   64.09000
 1960.80000    0.20000    0.00000   64.04000
 1961.00000    0.20000    0.00000   63.91000
 1961.20000    0.30000    0.00000   63.75000
 1961.40000    0.30000    0.00000   63.57000
 1961.60000    0.30000    0.00000   63.41000
 1961.80000    0.30000    0.00000   63.30000
 1962.00000    0.30000    0.00000   63.13000
 1962.20000    0.30000    0.00000   60.88000
 1962.40000    0.30000    0.00000   61.31000
 1962.60000    0.30000    0.00000   62.66000
 1962.80000    0.30000    0.00000   63.86000
 1963.00000    0.30000    0.00000   64.37000
 1963.20000    0.30000    0.00000   65.63000
 1963.40000    0.30000    0.00000   65.54000
 1963.60000    0.30000    0.00000   64.86000
 1963.80000    0.30000    0.00000   63.94000
 1964.00000    0.30000    0.00000   63.06000
 1964.20000    0.30000    0.00000   62.51000
 1964.40000    0.30000    0.00000   62.44000
 1964.60000    0.30000    0.00000   62.44000
 1964.80000    0.30000    0.00000   61.97000
 1965.00000    0.30000    0.00000   60.11000
 1965.20000    0.30000    0.00000    -999.25
 1965.40000    0.30000    0.00000    -999.25
 1965.60000    0.30000    0.00000    -999.25
 1965.80000    0.30000    0.00000    -999.25
 1966.00000    0.30000    0.00000    -999.25
 1966.20000    0.30000    0.00000    -999.25
 1966.40000    0.30000    0.00000    -999.25
 1966.60000    0.30000    0.00000    -999.25
 1966.80000    0.30000    0.00000    -999.25
 1967.00000    0.30000    0.00000    -999.25
